,id,name,address,types,rating,rating_n,international_phone_number,current_popularity,populartimes,coordinates.lat,coordinates.lng,time_spent,time_wait
0,ChIJOWJsUarIhkcRYNL_HukulK8,Milan Linate Airport,"Viale Enrico Forlanini, 20090 Segrate MI, Italy","['airport', 'point_of_interest', 'establishment']",3.6,1728.0,+39 02 232323,5.0,"[{'name': 'Monday', 'data': [9, 4, 2, 3, 10, 28, 54, 72, 83, 93, 100, 97, 89, 81, 78, 80, 84, 84, 80, 70, 56, 42, 29, 18]}, {'name': 'Tuesday', 'data': [10, 5, 3, 3, 10, 27, 50, 69, 79, 85, 88, 87, 81, 75, 73, 74, 77, 77, 72, 63, 50, 36, 24, 15]}, {'name': 'Wednesday', 'data': [8, 4, 2, 3, 10, 26, 46, 63, 74, 82, 86, 84, 78, 74, 75, 80, 84, 85, 81, 71, 57, 42, 29, 18]}, {'name': 'Thursday', 'data': [10, 5, 3, 4, 15, 27, 44, 63, 79, 89, 90, 85, 79, 76, 79, 85, 89, 87, 80, 72, 63, 50, 33, 17]}, {'name': 'Friday', 'data': [7, 3, 3, 7, 10, 25, 44, 59, 70, 80, 88, 88, 84, 80, 81, 87, 93, 96, 92, 81, 66, 49, 33, 20]}, {'name': 'Saturday', 'data': [11, 6, 3, 4, 12, 22, 36, 51, 64, 71, 72, 69, 65, 64, 65, 65, 60, 51, 42, 37, 34, 29, 20, 11]}, {'name': 'Sunday', 'data': [5, 2, 2, 5, 6, 14, 27, 40, 52, 58, 59, 59, 59, 61, 63, 67, 73, 79, 82, 78, 65, 48, 31, 18]}]",45.452176,9.276308,,
1,ChIJz6BY-AjGhkcRvcNsTMKBOng,Milan Linate Prime,"Viale dell'Aviazione, 65, 20138 Milano MI, Italy","['airport', 'point_of_interest', 'establishment']",4.4,14.0,+39 02 7485 4772,,"[{'name': 'Monday', 'data': [2, 2, 2, 2, 6, 16, 31, 48, 65, 79, 87, 88, 84, 76, 68, 59, 51, 44, 38, 31, 24, 17, 11, 5]}, {'name': 'Tuesday', 'data': [1, 2, 2, 2, 2, 8, 30, 58, 85, 100, 94, 76, 58, 51, 55, 62, 64, 56, 40, 23, 11, 5, 3, 3]}, {'name': 'Wednesday', 'data': [2, 2, 2, 2, 2, 5, 19, 35, 51, 59, 58, 53, 56, 65, 76, 79, 73, 59, 44, 34, 28, 22, 17, 12]}, {'name': 'Thursday', 'data': [6, 2, 2, 2, 3, 11, 22, 35, 51, 67, 79, 89, 93, 92, 86, 78, 68, 58, 48, 38, 29, 21, 14, 7]}, {'name': 'Friday', 'data': [3, 2, 2, 2, 2, 6, 21, 41, 62, 78, 85, 82, 76, 74, 75, 75, 67, 50, 32, 21, 17, 17, 16, 12]}, {'name': 'Saturday', 'data': [5, 2, 2, 2, 2, 4, 15, 29, 41, 49, 50, 47, 41, 39, 39, 41, 41, 37, 28, 19, 13, 10, 7, 5]}, {'name': 'Sunday', 'data': [2, 2, 2, 2, 2, 4, 14, 25, 39, 51, 62, 69, 71, 70, 66, 60, 52, 44, 37, 28, 20, 12, 5, 2]}]",45.4538366,9.261438099999998,,
2,ChIJqfjocwjGhkcR18A8Hw-pFbw,Signature Flight Support LIN - Milan Linate Airport,"Viale dell'Aviazione, 65, 20138 Milano MI, Italy","['airport', 'point_of_interest', 'establishment']",4.0,,+39 02 7485 4804,,,45.45361299999999,9.261358,,
3,ChIJS1r_8zPphkcRdEtdU7qeqGA,Volo Club Milano,"Cascina Roncaglia, 1, 20080 Cascina Roncaglia MI, Italy","['airport', 'point_of_interest', 'establishment']",4.1,27.0,+39 02 9011 9825,,,45.4493294,8.9976894,,
4,ChIJq3aCP_vvhkcRQbQwXoQ0rfA,Campo Volo dei Navigli,"20081 Abbiategrasso, Metropolitan City of Milan, Italy","['airport', 'point_of_interest', 'establishment']",,,,,,45.4138714,8.8964781,,
5,ChIJ6fH7riFLgUcR7HpYwm3Xq4U,Baialupo - VI HQ,"Via per Pozzo D'adda, 29, 20062 Cassano d'Adda MI, Italy","['airport', 'point_of_interest', 'establishment']",5.0,8.0,+39 0363 62557,,,45.5532006,9.5055193,,
6,ChIJaQN9kRSQhkcRrJnIipXbI0A,Campo Volo,"22070 Fenegrò, Province of Como, Italy","['airport', 'point_of_interest', 'establishment']",5.0,5.0,,,,45.6866904,8.9963765,,
7,ChIJ24-qNqm_hkcRt2XwyimPfIY,Aero Club Milano,"Viale Antonio Gramsci, 1, 20091 Bresso MI, Italy","['airport', 'university', 'point_of_interest', 'establishment']",4.1,134.0,+39 02 610 1625,,,45.5362041,9.1993226,,
8,ChIJoQvCYw3GhkcRr3FCzNHOkOY,British Airways Word Cargo-Modulo Merci Linate,"Viale Enrico Forlanini, 65, 20134 Milano MI, Italy","['airport', 'point_of_interest', 'establishment']",5.0,1.0,+39 02 7010 0210,,,45.4619122,9.254727599999999,,
9,ChIJOYuUANLGhkcRyyU8LBvkPL4,Eliporto Palazzo Lombardia,"Piazza Città di Lombardia, 20124 Milano MI, Italy","['airport', 'point_of_interest', 'establishment']",,,,,,45.48601719999999,9.196304999999999,,
10,ChIJcybjKRTHhkcRZ5VyQfC2mMM,"Lovelycaribe per Viaggi a Cuba, Repubblica Dominicana e Messico","Via Ponte Seveso, 41, 20125 Milano MI, Italy","['travel_agency', 'car_rental', 'airport', 'real_estate_agency', 'point_of_interest', 'establishment']",3.7,3.0,+39 02 3672 8601,,,45.49045829999999,9.205644000000001,,
11,ChIJG5GqQMrBhkcR5I3-LvYs-RQ,Hospital Helipad,"Via Ettore Majorana, 20162 Milano MI, Italy","['airport', 'point_of_interest', 'establishment']",,,,,,45.5121086,9.1856687,,
12,ChIJKxUeOqrBhkcRPnp_d8wdtKg,Novaris Milano,"Via Barnaba Oriani, 7, 20156 Milano MI, Italy","['airport', 'point_of_interest', 'establishment']",,,+39 348 243 7988,,,45.5013584,9.138356000000002,,
13,ChIJk1NVegjGhkcRsd9vzxMqq5Q,GAT privat aviation,"Viale dell'Aviazione, 65, 20138 Milano MI, Italy","['airport', 'point_of_interest', 'establishment']",,,+39 02 7485 45101,,,45.4540976,9.261415299999998,,
14,ChIJ1zIl_UXHhkcRxBTzwHqDWZY,Eliporto Bicocca,"Bicocca, 20126 Milan, Metropolitan City of Milan, Italy","['airport', 'point_of_interest', 'establishment']",,,,,,45.5182966,9.2120758,,
15,ChIJMTp9BozJhkcR75RFTldcdZ0,AEROPORTO LINATE,"Aeroporto Linate - Partenze, 20090 Novegro-Tregarezzo MI, Italy","['airport', 'point_of_interest', 'establishment']",,,,,,45.46141900000001,9.277554,,
16,ChIJjzKs-bvHhkcRQIIKUBkSFMw,"HELIPORT - Hospital ""San Raffaele"" (MI)","c/o Ospedale ""San Raffaele"" (MI), 20132 Milano MI, Italy","['airport', 'point_of_interest', 'establishment']",4.8,,+39 02 26431,,,45.5043487,9.260267599999999,,
17,ChIJ84vp_rvHhkcREUMJV9uqdzg,Hospital Helipark,"Cascina Gobba, 20132 Milano MI, Italy","['airport', 'point_of_interest', 'establishment']",,,,,,45.5042862,9.260561299999999,,
18,ChIJAaVFUqbIhkcRzZD_dtY76BQ,Milan Linate Airport,"Viale Enrico Forlanini, 20090 Segrate MI, Italy","['airport', 'point_of_interest', 'establishment']",3.6,1728.0,+39 02 232323,5.0,"[{'name': 'Monday', 'data': [9, 4, 2, 3, 10, 28, 54, 72, 83, 93, 100, 97, 89, 81, 78, 80, 84, 84, 80, 70, 56, 42, 29, 18]}, {'name': 'Tuesday', 'data': [10, 5, 3, 3, 10, 27, 50, 69, 79, 85, 88, 87, 81, 75, 73, 74, 77, 77, 72, 63, 50, 36, 24, 15]}, {'name': 'Wednesday', 'data': [8, 4, 2, 3, 10, 26, 46, 63, 74, 82, 86, 84, 78, 74, 75, 80, 84, 85, 81, 71, 57, 42, 29, 18]}, {'name': 'Thursday', 'data': [10, 5, 3, 4, 15, 27, 44, 63, 79, 89, 90, 85, 79, 76, 79, 85, 89, 87, 80, 72, 63, 50, 33, 17]}, {'name': 'Friday', 'data': [7, 3, 3, 7, 10, 25, 44, 59, 70, 80, 88, 88, 84, 80, 81, 87, 93, 96, 92, 81, 66, 49, 33, 20]}, {'name': 'Saturday', 'data': [11, 6, 3, 4, 12, 22, 36, 51, 64, 71, 72, 69, 65, 64, 65, 65, 60, 51, 42, 37, 34, 29, 20, 11]}, {'name': 'Sunday', 'data': [5, 2, 2, 5, 6, 14, 27, 40, 52, 58, 59, 59, 59, 61, 63, 67, 73, 79, 82, 78, 65, 48, 31, 18]}]",45.46208439999999,9.2793881,,
19,ChIJ42iQsAXJhkcRYfWzNNezQag,Enac,"Aeroporto di Milano Linate, 20090, 20090 Novegro-Tregarezzo MI, Italy","['airport', 'point_of_interest', 'establishment']",,,,,,45.46148590000001,9.2809542,,
20,ChIJceFw2jbEhkcRHB2ee8-txr8,Credito Artigiano Agenzia 2,"Viale Brenta, 3, 20139 Milano MI, Italy","['atm', 'bank', 'finance', 'point_of_interest', 'establishment']",3.2,6.0,+39 02 5220 3211,,,45.441152,9.214351200000001,,
21,ChIJMT7Vke22hkcRrbQiQ12GF4c,Credito Valtellinese Spa,"Via Roma, 35, 20040 Caponago MB, Italy","['bank', 'atm', 'finance', 'point_of_interest', 'establishment']",,,+39 02 9574 2067,,"[{'name': 'Monday', 'data': [0, 0, 0, 0, 0, 0, 0, 0, 42, 53, 19, 26, 38, 7, 7, 11, 11, 0, 0, 0, 0, 0, 0, 0]}, {'name': 'Tuesday', 'data': [0, 0, 0, 0, 0, 0, 0, 0, 15, 34, 50, 46, 23, 11, 15, 26, 19, 0, 0, 0, 0, 0, 0, 0]}, {'name': 'Wednesday', 'data': [0, 0, 0, 0, 0, 0, 0, 0, 30, 88, 100, 50, 15, 11, 11, 15, 15, 0, 0, 0, 0, 0, 0, 0]}, {'name': 'Thursday', 'data': [0, 0, 0, 0, 0, 0, 0, 0, 11, 46, 61, 34, 11, 11, 19, 26, 26, 0, 0, 0, 0, 0, 0, 0]}, {'name': 'Friday', 'data': [0, 0, 0, 0, 0, 0, 0, 0, 15, 30, 46, 50, 38, 26, 19, 19, 19, 0, 0, 0, 0, 0, 0, 0]}, {'name': 'Saturday', 'data': [0, 0, 0, 0, 0, 0, 0, 0, 0, 0, 0, 0, 0, 0, 0, 0, 0, 0, 0, 0, 0, 0, 0, 0]}, {'name': 'Sunday', 'data': [0, 0, 0, 0, 0, 0, 0, 0, 0, 0, 0, 0, 0, 0, 0, 0, 0, 0, 0, 0, 0, 0, 0, 0]}]",45.5668702,9.376966399999997,,
22,ChIJl--F_knEhkcRuadYzqPuTp4,Banca Popolare di Sondrio S.p.A.,"Via Marco D'Agrate, 11, 20139 Milano MI, Italy","['bank', 'atm', 'finance', 'point_of_interest', 'establishment']",3.7,3.0,+39 02 573 1381,,"[{'name': 'Monday', 'data': [0, 0, 0, 0, 0, 0, 0, 0, 20, 59, 100, 97, 59, 27, 50, 56, 0, 0, 0, 0, 0, 0, 0, 0]}, {'name': 'Tuesday', 'data': [0, 0, 0, 0, 0, 0, 0, 0, 20, 36, 54, 93, 84, 45, 34, 31, 0, 0, 0, 0, 0, 0, 0, 0]}, {'name': 'Wednesday', 'data': [0, 0, 0, 0, 0, 0, 0, 0, 20, 54, 65, 61, 54, 36, 25, 22, 0, 0, 0, 0, 0, 0, 0, 0]}, {'name': 'Thursday', 'data': [0, 0, 0, 0, 0, 0, 0, 0, 2, 20, 63, 95, 63, 18, 2, 45, 0, 0, 0, 0, 0, 0, 0, 0]}, {'name': 'Friday', 'data': [0, 0, 0, 0, 0, 0, 0, 0, 22, 50, 72, 68, 56, 56, 59, 47, 0, 0, 0, 0, 0, 0, 0, 0]}, {'name': 'Saturday', 'data': [0, 0, 0, 0, 0, 0, 0, 0, 0, 0, 0, 0, 0, 0, 0, 0, 0, 0, 0, 0, 0, 0, 0, 0]}, {'name': 'Sunday', 'data': [0, 0, 0, 0, 0, 0, 0, 0, 0, 0, 0, 0, 0, 0, 0, 0, 0, 0, 0, 0, 0, 0, 0, 0]}]",45.4367102,9.2150914,"[15, 15]",
23,ChIJm1vubZPAhkcRMZ_l4i4LkdY,Credito Artigiano Agenzia 6,"Via Alessandro Astesani, 24, 20161 Milano MI, Italy","['bank', 'atm', 'finance', 'point_of_interest', 'establishment']",4.3,4.0,+39 02 6620 0400,,"[{'name': 'Monday', 'data': [0, 0, 0, 0, 0, 0, 0, 0, 32, 77, 100, 70, 34, 25, 31, 31, 22, 0, 0, 0, 0, 0, 0, 0]}, {'name': 'Tuesday', 'data': [0, 0, 0, 0, 0, 0, 0, 0, 58, 50, 51, 74, 56, 37, 39, 39, 32, 0, 0, 0, 0, 0, 0, 0]}, {'name': 'Wednesday', 'data': [0, 0, 0, 0, 0, 0, 0, 0, 41, 51, 39, 60, 65, 17, 22, 36, 32, 0, 0, 0, 0, 0, 0, 0]}, {'name': 'Thursday', 'data': [0, 0, 0, 0, 0, 0, 0, 0, 25, 51, 70, 68, 53, 39, 34, 31, 22, 0, 0, 0, 0, 0, 0, 0]}, {'name': 'Friday', 'data': [0, 0, 0, 0, 0, 0, 0, 0, 34, 55, 62, 53, 46, 46, 46, 37, 25, 0, 0, 0, 0, 0, 0, 0]}, {'name': 'Saturday', 'data': [0, 0, 0, 0, 0, 0, 0, 0, 0, 0, 0, 0, 0, 0, 0, 0, 0, 0, 0, 0, 0, 0, 0, 0]}, {'name': 'Sunday', 'data': [0, 0, 0, 0, 0, 0, 0, 0, 0, 0, 0, 0, 0, 0, 0, 0, 0, 0, 0, 0, 0, 0, 0, 0]}]",45.51821839999999,9.1708826,"[20, 20]",
24,ChIJydYPHizEhkcRXGSMe1vy1UE,Banca Popolare di Milano,"Via Alberto Caroncini, 6, 20137 Milano MI, Italy","['bank', 'atm', 'finance', 'point_of_interest', 'establishment']",3.0,2.0,+39 02 546 2331,,,45.4497068,9.220653499999997,,
25,ChIJR1EmR2jHhkcRIBth2F0j_3M,Banco BPM Spa,"Viale Monza, 343, 20126 Milano MI, Italy","['bank', 'atm', 'finance', 'point_of_interest', 'establishment']",2.3,6.0,+39 02 257 2342,,"[{'name': 'Monday', 'data': [0, 0, 0, 0, 0, 0, 0, 0, 16, 49, 87, 100, 76, 49, 43, 32, 0, 0, 0, 0, 0, 0, 0, 0]}, {'name': 'Tuesday', 'data': [0, 0, 0, 0, 0, 0, 0, 0, 21, 63, 47, 40, 40, 25, 25, 34, 0, 0, 0, 0, 0, 0, 0, 0]}, {'name': 'Wednesday', 'data': [0, 0, 0, 0, 0, 0, 0, 0, 23, 60, 63, 43, 40, 30, 27, 61, 0, 0, 0, 0, 0, 0, 0, 0]}, {'name': 'Thursday', 'data': [0, 0, 0, 0, 0, 0, 0, 0, 21, 50, 70, 52, 25, 21, 36, 36, 0, 0, 0, 0, 0, 0, 0, 0]}, {'name': 'Friday', 'data': [0, 0, 0, 0, 0, 0, 0, 0, 29, 56, 76, 70, 47, 21, 18, 63, 0, 0, 0, 0, 0, 0, 0, 0]}, {'name': 'Saturday', 'data': [0, 0, 0, 0, 0, 0, 0, 0, 0, 0, 0, 0, 0, 0, 0, 0, 0, 0, 0, 0, 0, 0, 0, 0]}, {'name': 'Sunday', 'data': [0, 0, 0, 0, 0, 0, 0, 0, 0, 0, 0, 0, 0, 0, 0, 0, 0, 0, 0, 0, 0, 0, 0, 0]}]",45.5199761,9.2266417,"[20, 20]",
26,ChIJeZyr1CK8hkcRYbjRYY5CkMQ,Banco BPM Spa,"Via G. Garibaldi, 8, 20832 Desio MB, Italy","['bank', 'atm', 'finance', 'point_of_interest', 'establishment']",,,+39 0362 300663,,,45.61623820000001,9.2066955,,
27,ChIJVyVbFOm1hkcRFwOM0sD9xts,Banco BPM Spa,"Via Serbelloni, 43, 20064 Gorgonzola MI, Italy","['bank', 'atm', 'finance', 'point_of_interest', 'establishment']",2.3,3.0,+39 02 9530 2979,,"[{'name': 'Monday', 'data': [0, 0, 0, 0, 0, 0, 0, 0, 26, 65, 100, 93, 53, 30, 61, 40, 0, 0, 0, 0, 0, 0, 0, 0]}, {'name': 'Tuesday', 'data': [0, 0, 0, 0, 0, 0, 0, 0, 20, 62, 77, 64, 43, 29, 27, 22, 0, 0, 0, 0, 0, 0, 0, 0]}, {'name': 'Wednesday', 'data': [0, 0, 0, 0, 0, 0, 0, 0, 26, 49, 47, 59, 45, 35, 30, 22, 0, 0, 0, 0, 0, 0, 0, 0]}, {'name': 'Thursday', 'data': [0, 0, 0, 0, 0, 0, 0, 0, 22, 41, 44, 34, 28, 27, 24, 18, 0, 0, 0, 0, 0, 0, 0, 0]}, {'name': 'Friday', 'data': [0, 0, 0, 0, 0, 0, 0, 0, 26, 47, 66, 73, 64, 44, 24, 10, 0, 0, 0, 0, 0, 0, 0, 0]}, {'name': 'Saturday', 'data': [0, 0, 0, 0, 0, 0, 0, 0, 0, 0, 0, 0, 0, 0, 0, 0, 0, 0, 0, 0, 0, 0, 0, 0]}, {'name': 'Sunday', 'data': [0, 0, 0, 0, 0, 0, 0, 0, 0, 0, 0, 0, 0, 0, 0, 0, 0, 0, 0, 0, 0, 0, 0, 0]}]",45.5317513,9.4085551,"[25, 25]",
28,ChIJQftJEmaThkcReKCMOF48Sd4,Credito Artigiano,"Viale Italia, 4, 20020 Lainate MI, Italy","['bank', 'atm', 'finance', 'point_of_interest', 'establishment']",1.5,2.0,+39 02 9357 1487,,,45.5706494,9.0208178,,
29,ChIJTQbwkP67hkcROWBN2DRUZTs,Banca Popolare di Milano Spa,"Piazza Italia, 1, 20851 Lissone MB, Italy","['bank', 'atm', 'finance', 'point_of_interest', 'establishment']",3.7,6.0,+39 039 245 9250,,"[{'name': 'Monday', 'data': [0, 0, 0, 0, 0, 0, 0, 0, 30, 68, 98, 89, 56, 43, 59, 62, 0, 0, 0, 0, 0, 0, 0, 0]}, {'name': 'Tuesday', 'data': [0, 0, 0, 0, 0, 0, 0, 0, 25, 67, 57, 82, 79, 39, 35, 42, 0, 0, 0, 0, 0, 0, 0, 0]}, {'name': 'Wednesday', 'data': [0, 0, 0, 0, 0, 0, 0, 0, 56, 69, 43, 54, 48, 39, 36, 32, 0, 0, 0, 0, 0, 0, 0, 0]}, {'name': 'Thursday', 'data': [0, 0, 0, 0, 0, 0, 0, 0, 37, 58, 62, 63, 56, 40, 35, 34, 0, 0, 0, 0, 0, 0, 0, 0]}, {'name': 'Friday', 'data': [0, 0, 0, 0, 0, 0, 0, 0, 36, 73, 79, 100, 98, 52, 42, 31, 0, 0, 0, 0, 0, 0, 0, 0]}, {'name': 'Saturday', 'data': [0, 0, 0, 0, 0, 0, 0, 0, 0, 0, 0, 0, 0, 0, 0, 0, 0, 0, 0, 0, 0, 0, 0, 0]}, {'name': 'Sunday', 'data': [0, 0, 0, 0, 0, 0, 0, 0, 0, 0, 0, 0, 0, 0, 0, 0, 0, 0, 0, 0, 0, 0, 0, 0]}]",45.609305,9.2355401,"[20, 20]",
30,ChIJtYAYLhTBhkcR9HgTBHxklbo,CheBanca! Milano Sempione,"Corso Sempione, 54, 20154 Milano MI, Italy","['bank', 'atm', 'finance', 'point_of_interest', 'establishment']",2.5,24.0,+39 02 3200 4040,,"[{'name': 'Monday', 'data': [0, 0, 0, 0, 0, 0, 0, 0, 25, 55, 81, 83, 67, 53, 0, 0, 0, 0, 0, 0, 0, 0, 0, 0]}, {'name': 'Tuesday', 'data': [0, 0, 0, 0, 0, 0, 0, 0, 19, 58, 100, 98, 55, 21, 0, 0, 0, 0, 0, 0, 0, 0, 0, 0]}, {'name': 'Wednesday', 'data': [0, 0, 0, 0, 0, 0, 0, 0, 34, 74, 86, 64, 43, 40, 0, 0, 0, 0, 0, 0, 0, 0, 0, 0]}, {'name': 'Thursday', 'data': [0, 0, 0, 0, 0, 0, 0, 0, 18, 41, 64, 71, 61, 46, 0, 0, 0, 0, 0, 0, 0, 0, 0, 0]}, {'name': 'Friday', 'data': [0, 0, 0, 0, 0, 0, 0, 0, 16, 42, 55, 67, 85, 51, 0, 0, 0, 0, 0, 0, 0, 0, 0, 0]}, {'name': 'Saturday', 'data': [0, 0, 0, 0, 0, 0, 0, 0, 0, 0, 0, 0, 0, 0, 0, 0, 0, 0, 0, 0, 0, 0, 0, 0]}, {'name': 'Sunday', 'data': [0, 0, 0, 0, 0, 0, 0, 0, 0, 0, 0, 0, 0, 0, 0, 0, 0, 0, 0, 0, 0, 0, 0, 0]}]",45.4832598,9.1632061,"[20, 20]",
31,ChIJ1wZB4KjGhkcRzMk9uetLLqw,Deutsche Bank,"Via S. Prospero, 2, 20121 Milano MI, Italy","['bank', 'atm', 'finance', 'point_of_interest', 'establishment']",3.3,6.0,+39 02 4024 3229,,"[{'name': 'Monday', 'data': [0, 0, 0, 0, 0, 0, 0, 0, 29, 47, 65, 83, 76, 0, 0, 0, 0, 0, 0, 0, 0, 0, 0, 0]}, {'name': 'Tuesday', 'data': [0, 0, 0, 0, 0, 0, 0, 0, 32, 58, 78, 80, 69, 0, 0, 0, 0, 0, 0, 0, 0, 0, 0, 0]}, {'name': 'Wednesday', 'data': [0, 0, 0, 0, 0, 0, 0, 0, 34, 72, 70, 74, 80, 0, 0, 0, 0, 0, 0, 0, 0, 0, 0, 0]}, {'name': 'Thursday', 'data': [0, 0, 0, 0, 0, 0, 0, 0, 36, 92, 63, 78, 89, 0, 0, 0, 0, 0, 0, 0, 0, 0, 0, 0]}, {'name': 'Friday', 'data': [0, 0, 0, 0, 0, 0, 0, 0, 45, 78, 100, 98, 76, 0, 0, 0, 0, 0, 0, 0, 0, 0, 0, 0]}, {'name': 'Saturday', 'data': [0, 0, 0, 0, 0, 0, 0, 0, 0, 0, 0, 0, 0, 0, 0, 0, 0, 0, 0, 0, 0, 0, 0, 0]}, {'name': 'Sunday', 'data': [0, 0, 0, 0, 0, 0, 0, 0, 0, 0, 0, 0, 0, 0, 0, 0, 0, 0, 0, 0, 0, 0, 0, 0]}]",45.466142,9.186096,"[20, 20]",
32,ChIJnxljEQTEhkcRQRc_wgJfDZg,Banca Profilo Spa,"Via Cerva, 28, 20122 Milano MI, Italy","['bank', 'atm', 'finance', 'point_of_interest', 'establishment']",5.0,2.0,+39 02 584081,,,45.4656752,9.1991034,,
33,ChIJzUoSA-bHhkcRaAnyJMimmh4,Credito Valtellinese Spa,"Strada Padana, 231, 20090 Vimodrone MI, Italy","['bank', 'atm', 'finance', 'point_of_interest', 'establishment']",2.5,6.0,+39 02 9197 0280,,"[{'name': 'Monday', 'data': [0, 0, 0, 0, 0, 0, 0, 0, 20, 42, 64, 64, 46, 28, 31, 42, 42, 0, 0, 0, 0, 0, 0, 0]}, {'name': 'Tuesday', 'data': [0, 0, 0, 0, 0, 0, 0, 0, 28, 51, 55, 44, 35, 33, 31, 26, 20, 0, 0, 0, 0, 0, 0, 0]}, {'name': 'Wednesday', 'data': [0, 0, 0, 0, 0, 0, 0, 0, 13, 26, 40, 40, 33, 28, 28, 24, 20, 0, 0, 0, 0, 0, 0, 0]}, {'name': 'Thursday', 'data': [0, 0, 0, 0, 0, 0, 0, 0, 20, 42, 57, 55, 44, 37, 42, 42, 28, 0, 0, 0, 0, 0, 0, 0]}, {'name': 'Friday', 'data': [0, 0, 0, 0, 0, 0, 0, 0, 37, 57, 55, 62, 100, 71, 44, 42, 28, 0, 0, 0, 0, 0, 0, 0]}, {'name': 'Saturday', 'data': [0, 0, 0, 0, 0, 0, 0, 0, 0, 0, 0, 0, 0, 0, 0, 0, 0, 0, 0, 0, 0, 0, 0, 0]}, {'name': 'Sunday', 'data': [0, 0, 0, 0, 0, 0, 0, 0, 0, 0, 0, 0, 0, 0, 0, 0, 0, 0, 0, 0, 0, 0, 0, 0]}]",45.51182790000001,9.285066500000001,"[15, 15]",
34,ChIJfz8fLdbAhkcREtFEGtAovOc,Cassa di Risparmio di Parma e Piacenza Spa,"Piazzale Carlo Maciachini, 9, 20159 Milano MI, Italy","['bank', 'atm', 'finance', 'point_of_interest', 'establishment']",,,+39 02 607 4981,,,45.49701699999999,9.1849889,,
35,ChIJCbwttZPAhkcRA5E5po7ypEg,Banca Popolare di Milano Spa,"Via Alessandro Astesani, 46, 20161 Milano MI, Italy","['bank', 'atm', 'finance', 'point_of_interest', 'establishment']",2.0,11.0,+39 02 6620 4581,,"[{'name': 'Monday', 'data': [0, 0, 0, 0, 0, 0, 0, 0, 37, 76, 100, 92, 71, 55, 43, 29, 0, 0, 0, 0, 0, 0, 0, 0]}, {'name': 'Tuesday', 'data': [0, 0, 0, 0, 0, 0, 0, 0, 17, 59, 95, 80, 41, 23, 25, 26, 0, 0, 0, 0, 0, 0, 0, 0]}, {'name': 'Wednesday', 'data': [0, 0, 0, 0, 0, 0, 0, 0, 10, 47, 46, 43, 71, 31, 26, 22, 0, 0, 0, 0, 0, 0, 0, 0]}, {'name': 'Thursday', 'data': [0, 0, 0, 0, 0, 0, 0, 0, 14, 49, 82, 80, 53, 41, 44, 38, 0, 0, 0, 0, 0, 0, 0, 0]}, {'name': 'Friday', 'data': [0, 0, 0, 0, 0, 0, 0, 0, 34, 59, 61, 68, 65, 34, 26, 25, 0, 0, 0, 0, 0, 0, 0, 0]}, {'name': 'Saturday', 'data': [0, 0, 0, 0, 0, 0, 0, 0, 0, 0, 0, 0, 0, 0, 0, 0, 0, 0, 0, 0, 0, 0, 0, 0]}, {'name': 'Sunday', 'data': [0, 0, 0, 0, 0, 0, 0, 0, 0, 0, 0, 0, 0, 0, 0, 0, 0, 0, 0, 0, 0, 0, 0, 0]}]",45.5200469,9.169856700000002,"[20, 20]",
36,ChIJz4iYWyXbhkcReFUYz4rGX0Y,Banca Popolare di Milano Spa,"Via Roma, 16, 20090 Pieve Emanuele MI, Italy","['bank', 'atm', 'finance', 'point_of_interest', 'establishment']",,,+39 02 4891 0839,,,45.3560879,9.201416799999999,,
37,ChIJjd0bTqG5hkcR-y6bhySq9hU,Findomestic Centro Clienti MONZA,"Corso Milano, 3, 20900 Monza MB, Italy","['bank', 'atm', 'finance', 'point_of_interest', 'establishment']",1.1,13.0,+39 039 280 3222,,"[{'name': 'Monday', 'data': [0, 0, 0, 0, 0, 0, 0, 0, 0, 44, 76, 71, 39, 0, 34, 68, 65, 31, 0, 0, 0, 0, 0, 0]}, {'name': 'Tuesday', 'data': [0, 0, 0, 0, 0, 0, 0, 0, 0, 60, 68, 39, 18, 0, 42, 57, 55, 39, 0, 0, 0, 0, 0, 0]}, {'name': 'Wednesday', 'data': [0, 0, 0, 0, 0, 0, 0, 0, 0, 57, 100, 78, 44, 0, 44, 47, 42, 34, 0, 0, 0, 0, 0, 0]}, {'name': 'Thursday', 'data': [0, 0, 0, 0, 0, 0, 0, 0, 0, 36, 86, 100, 71, 0, 55, 50, 39, 26, 0, 0, 0, 0, 0, 0]}, {'name': 'Friday', 'data': [0, 0, 0, 0, 0, 0, 0, 0, 0, 44, 86, 92, 52, 0, 42, 76, 76, 39, 0, 0, 0, 0, 0, 0]}, {'name': 'Saturday', 'data': [0, 0, 0, 0, 0, 0, 0, 0, 0, 0, 0, 0, 0, 0, 0, 0, 0, 0, 0, 0, 0, 0, 0, 0]}, {'name': 'Sunday', 'data': [0, 0, 0, 0, 0, 0, 0, 0, 0, 0, 0, 0, 0, 0, 0, 0, 0, 0, 0, 0, 0, 0, 0, 0]}]",45.579854,9.273172,"[20, 20]",
38,ChIJUfBEN2LPhkcRSV3NGa5nqD0,Credito Valtellinese Spa,"Via Triulziana, 16, 20097 San Donato Milanese MI, Italy","['bank', 'atm', 'finance', 'point_of_interest', 'establishment']",,,+39 02 5162 0477,,"[{'name': 'Monday', 'data': [0, 0, 0, 0, 0, 0, 0, 0, 13, 66, 46, 66, 86, 31, 57, 57, 33, 0, 0, 0, 0, 0, 0, 0]}, {'name': 'Tuesday', 'data': [0, 0, 0, 0, 0, 0, 0, 0, 20, 42, 62, 66, 51, 33, 28, 33, 28, 0, 0, 0, 0, 0, 0, 0]}, {'name': 'Wednesday', 'data': [0, 0, 0, 0, 0, 0, 0, 0, 6, 24, 55, 71, 51, 24, 20, 28, 17, 0, 0, 0, 0, 0, 0, 0]}, {'name': 'Thursday', 'data': [0, 0, 0, 0, 0, 0, 0, 0, 13, 26, 42, 48, 42, 26, 20, 51, 40, 0, 0, 0, 0, 0, 0, 0]}, {'name': 'Friday', 'data': [0, 0, 0, 0, 0, 0, 0, 0, 15, 53, 95, 100, 62, 22, 28, 60, 24, 0, 0, 0, 0, 0, 0, 0]}, {'name': 'Saturday', 'data': [0, 0, 0, 0, 0, 0, 0, 0, 0, 0, 0, 0, 0, 0, 0, 0, 0, 0, 0, 0, 0, 0, 0, 0]}, {'name': 'Sunday', 'data': [0, 0, 0, 0, 0, 0, 0, 0, 0, 0, 0, 0, 0, 0, 0, 0, 0, 0, 0, 0, 0, 0, 0, 0]}]",45.42693209999999,9.2649323,"[20, 20]",
39,ChIJWdnc_SK8hkcRo5S3uxCDF0k,Credito Valtellinese Spa,"Via G. Garibaldi, 6, 20832 Desio MB, Italy","['bank', 'atm', 'finance', 'point_of_interest', 'establishment']",4.5,2.0,+39 0362 307063,,"[{'name': 'Monday', 'data': [0, 0, 0, 0, 0, 0, 0, 0, 23, 60, 100, 100, 67, 41, 34, 30, 21, 0, 0, 0, 0, 0, 0, 0]}, {'name': 'Tuesday', 'data': [0, 0, 0, 0, 0, 0, 0, 0, 15, 41, 71, 82, 63, 39, 36, 41, 23, 0, 0, 0, 0, 0, 0, 0]}, {'name': 'Wednesday', 'data': [0, 0, 0, 0, 0, 0, 0, 0, 28, 45, 45, 34, 30, 28, 28, 23, 19, 0, 0, 0, 0, 0, 0, 0]}, {'name': 'Thursday', 'data': [0, 0, 0, 0, 0, 0, 0, 0, 17, 45, 69, 63, 32, 13, 17, 36, 34, 0, 0, 0, 0, 0, 0, 0]}, {'name': 'Friday', 'data': [0, 0, 0, 0, 0, 0, 0, 0, 23, 54, 60, 71, 52, 23, 23, 32, 23, 0, 0, 0, 0, 0, 0, 0]}, {'name': 'Saturday', 'data': [0, 0, 0, 0, 0, 0, 0, 0, 0, 0, 0, 0, 0, 0, 0, 0, 0, 0, 0, 0, 0, 0, 0, 0]}, {'name': 'Sunday', 'data': [0, 0, 0, 0, 0, 0, 0, 0, 0, 0, 0, 0, 0, 0, 0, 0, 0, 0, 0, 0, 0, 0, 0, 0]}]",45.6168856,9.206868199999999,"[15, 15]",
40,ChIJbQW5wVTAhkcRY80EmLTiCys,Radisson Blu Hotel Milan,"Via Villapizzone, 24, 20156 Milano MI, Italy","['lodging', 'bar', 'restaurant', 'food', 'gym', 'health', 'point_of_interest', 'establishment']",4.3,1212.0,+39 02 363 1888,,,45.50066309999999,9.144576299999999,,
41,ChIJD7Ws327ChkcRcIUSjWHRF9A,Hotel Roma in Milan,"Via Poliziano, 2, 20090 Cesano Boscone MI, Italy","['lodging', 'bar', 'point_of_interest', 'establishment']",3.2,115.0,+39 02 458 1805,,,45.4393992,9.098560299999999,,
42,ChIJ____v92OsUcRFPum7dZ-B4w,Grand Hotel Duca Di Mantova,"Piazza Francesco Caltagirone, 40, 20099 Sesto San Giovanni MI, Italy","['lodging', 'bar', 'restaurant', 'food', 'point_of_interest', 'establishment']",4.0,388.0,+39 02 2498 9701,,,45.5501852,9.255220399999999,,
43,ChIJ5bYLe_LphkcRQRuUuxixgao,Hotel Silver Milano,"Via Riccardo Lombardi, 9, 20153 Milano MI, Italy","['lodging', 'bar', 'restaurant', 'food', 'point_of_interest', 'establishment']",4.2,396.0,+39 02 4891 6779,,,45.459016,9.068226,,
44,ChIJv8PMncPGhkcRpqqCOc2s_5Y,Hotel Charly,"Via Lodovico Settala, 76, 20124 Milano MI, Italy","['lodging', 'bar', 'point_of_interest', 'establishment']",4.3,228.0,+39 02 204 7190,,,45.4824326,9.208176299999998,,
45,ChIJheQAjsKThkcRIav0dpSH4YA,Motel Peralba,"Viale Europa, 61, 21047 Saronno VA, Italy","['lodging', 'bar', 'point_of_interest', 'establishment']",4.2,304.0,+39 02 960 0452,,,45.6126938,9.019131800000002,,
46,ChIJz4oic7HGhkcR6DARPUTOSHk,Grand Hotel et de Milan,"Via Alessandro Manzoni, 29, 20121 Milano MI, Italy","['lodging', 'bar', 'restaurant', 'food', 'point_of_interest', 'establishment']",4.7,533.0,+39 02 723141,,,45.4699224,9.192502899999997,,
47,ChIJ5beMbfW9hkcRuJA0zLvNh1g,Hotel Victoria,"Via Como, 7, 20039 Varedo MB, Italy","['lodging', 'bar', 'point_of_interest', 'establishment']",2.9,86.0,+39 0362 580192,,,45.5975395,9.145484300000001,,
48,ChIJHZYWLhjHhkcRdTXtwNMg6Dw,Best Western Antares Hotel Concorde,"Viale Monza, 132, 20127 Milano MI, Italy","['lodging', 'bar', 'restaurant', 'food', 'point_of_interest', 'establishment']",4.1,1208.0,+39 02 2611 2020,,,45.5024263,9.2219069,,
49,ChIJ66szuzF0NxMRqSu61onUi5M,GRAND HOTEL BARONE DI SASSJ,"Via Vittorio Padovani, 38, 20099 Sesto San Giovanni MI, Italy","['lodging', 'bar', 'restaurant', 'food', 'point_of_interest', 'establishment']",4.0,1207.0,+39 02 241 1401,,,45.5375,9.230833300000002,,
50,ChIJWaEBEBu0hkcR_cQAiVkFcU0,Devero Hotel,"Largo J. F. Kennedy, 1, 20873 Cavenago di Brianza MB, Italy","['beauty_salon', 'spa', 'lodging', 'bar', 'restaurant', 'food', 'point_of_interest', 'establishment']",4.3,1489.0,+39 02 9533 5412,,,45.58025600000001,9.416784999999999,,
51,ChIJ5wx4X67GhkcRve69j0nZ-5U,STRAFhotel | a member of Design Hotels™,"Via S. Raffaele, 3, 20121 Milano MI, Italy","['lodging', 'bar', 'point_of_interest', 'establishment']",4.2,536.0,+39 02 805081,,,45.46523699999999,9.191246999999999,,
52,ChIJG339ICO8hkcR4eYnyEONYa8,Hotel Selide,"Via Giacomo Matteotti, 1, 20033 Desio MB, Italy","['lodging', 'bar', 'point_of_interest', 'establishment']",3.6,165.0,+39 0362 624441,,,45.6171409,9.206927000000002,,
53,ChIJwQQXkEXBhkcR6p1HGCVSK6I,Old Fashion Club,"Palazzo dell'Arte, Viale Luigi Camoens, 20121 Milano MI, Italy","['restaurant', 'night_club', 'bar', 'food', 'point_of_interest', 'establishment']",3.4,1443.0,+39 02 805 6231,,,45.4727971,9.173582800000002,,
54,ChIJlzlVXkjMhkcR74lvg95N8N4,Corte Grande,"Via Umberto I, 2/4, 20067 Tribiano MI, Italy","['lodging', 'bar', 'restaurant', 'food', 'point_of_interest', 'store', 'establishment']",4.2,303.0,+39 02 906 4080,,,45.41233,9.3801294,,
55,ChIJk_hmoVjBhkcR4RJwcjdIIjw,Sanvittore Ristorante Cocktail Bar & Music Lounge,"Viale Papiniano, 16, 20123 Milano MI, Italy","['bar', 'restaurant', 'food', 'point_of_interest', 'establishment']",3.5,16.0,+39 02 3705 9178,,,45.459883,9.1659682,,
56,ChIJsd5pEVDBhkcRO-QHXskjBbU,NooN Restaurant & Cocktail Bar,"Via Giovanni Boccaccio, 4, 20123 Milano MI, Italy","['restaurant', 'night_club', 'bar', 'food', 'point_of_interest', 'establishment']",3.5,47.0,+39 02 4802 4607,,,45.4678905,9.1746024,,
57,ChIJ278WkCTHhkcRe7bLnN_K90U,Ristorante Callistos,"Piazza Greco, 10, 20125 Milano MI, Italy","['cafe', 'bar', 'restaurant', 'food', 'point_of_interest', 'establishment']",3.1,170.0,+39 02 9415 0944,,"[{'name': 'Monday', 'data': [0, 0, 0, 0, 0, 0, 0, 0, 0, 0, 0, 0, 0, 0, 0, 0, 0, 0, 0, 0, 0, 0, 0, 0]}, {'name': 'Tuesday', 'data': [0, 0, 0, 0, 0, 0, 0, 0, 0, 0, 6, 3, 3, 10, 3, 0, 0, 0, 6, 23, 43, 53, 40, 20]}, {'name': 'Wednesday', 'data': [0, 0, 0, 0, 0, 0, 0, 0, 0, 0, 3, 10, 20, 20, 13, 0, 0, 0, 16, 40, 60, 53, 30, 10]}, {'name': 'Thursday', 'data': [0, 0, 0, 0, 0, 0, 0, 0, 0, 0, 3, 16, 36, 36, 20, 0, 0, 0, 6, 16, 26, 26, 23, 13]}, {'name': 'Friday', 'data': [0, 0, 0, 0, 0, 0, 0, 0, 0, 0, 0, 0, 0, 0, 0, 0, 0, 0, 0, 0, 0, 0, 0, 0]}, {'name': 'Saturday', 'data': [0, 0, 0, 0, 0, 0, 0, 0, 0, 0, 6, 13, 26, 33, 30, 0, 0, 0, 13, 40, 80, 100, 83, 43]}, {'name': 'Sunday', 'data': [0, 0, 0, 0, 0, 0, 0, 0, 0, 0, 3, 13, 23, 23, 13, 0, 0, 0, 20, 30, 40, 43, 26, 10]}]",45.5019041,9.2124541,,
58,ChIJBUuu_tjGhkcR3VMSkTR18aU,Rock'n'Roll,"Via Giuseppe Bruschetti, 11, 20125 Milano MI, Italy","['bar', 'point_of_interest', 'establishment']",4.2,1777.0,+39 02 8348 8344,,"[{'name': 'Monday', 'data': [18, 15, 0, 0, 0, 0, 0, 0, 0, 0, 0, 0, 0, 0, 0, 0, 0, 0, 0, 0, 0, 0, 0, 0]}, {'name': 'Tuesday', 'data': [0, 0, 0, 0, 0, 0, 0, 0, 0, 0, 0, 0, 0, 0, 0, 0, 0, 0, 0, 5, 9, 15, 19, 20]}, {'name': 'Wednesday', 'data': [18, 12, 0, 0, 0, 0, 0, 0, 0, 0, 0, 0, 0, 0, 0, 0, 0, 0, 0, 4, 8, 17, 30, 41]}, {'name': 'Thursday', 'data': [42, 32, 19, 0, 0, 0, 0, 0, 0, 0, 0, 0, 0, 0, 0, 0, 0, 0, 0, 4, 7, 14, 22, 26]}, {'name': 'Friday', 'data': [22, 13, 6, 0, 0, 0, 0, 0, 0, 0, 0, 0, 0, 0, 0, 0, 0, 0, 0, 4, 12, 30, 57, 82]}, {'name': 'Saturday', 'data': [91, 92, 87, 0, 0, 0, 0, 0, 0, 0, 0, 0, 0, 0, 0, 0, 0, 0, 0, 6, 13, 29, 55, 82]}, {'name': 'Sunday', 'data': [100, 96, 73, 0, 0, 0, 0, 0, 0, 0, 0, 0, 0, 0, 0, 0, 0, 0, 0, 4, 8, 14, 19, 20]}]",45.49252909999999,9.207508599999997,"[60, 180]",
59,ChIJ2b6Vm9GRhkcRA4OKwRY4Sns,Locanda Sant'Ambrogio,"Via Cesare Battisti, 995, 21040 Cislago VA, Italy","['restaurant', 'lodging', 'bar', 'food', 'point_of_interest', 'establishment']",4.1,157.0,+39 02 9638 0307,,,45.65983979999999,8.9758322,,
60,ChIJWaEBEBu0hkcR_cQAiVkFcU0,Devero Hotel,"Largo J. F. Kennedy, 1, 20873 Cavenago di Brianza MB, Italy","['beauty_salon', 'spa', 'lodging', 'bar', 'restaurant', 'food', 'point_of_interest', 'establishment']",4.3,1489.0,+39 02 9533 5412,,,45.58025600000001,9.416784999999999,,
61,ChIJqcGQZ7DGhkcRMEI-PQFMiPo,The Spa at Four Seasons Hotel Milano,"Via Gesù, 6/8, 20121 Milano MI, Italy","['spa', 'beauty_salon', 'point_of_interest', 'establishment']",4.7,1547.0,+39 390 277 088,,,45.469393,9.195218900000002,,
62,ChIJI6PfKQfEhkcReISsn1LBDHg,Brazilian Beauty Express - Centro Estetico Milano & Parrucchiere Milano,"Via Giuseppe Mercalli, 22, 20122 Milano MI, Italy","['beauty_salon', 'hair_care', 'point_of_interest', 'establishment']",4.3,39.0,+39 02 5656 9877,,,45.45535230000001,9.1894662,,
63,ChIJ5661oJPAhkcRXtrR0og3c34,EsteticaMente,"A. Astesani 26, ang. Via, Via Privata Vergato, 2, 20161 Milano MI, Italy","['beauty_salon', 'point_of_interest', 'establishment']",4.4,83.0,+39 02 6622 8135,,"[{'name': 'Monday', 'data': [0, 0, 0, 0, 0, 0, 0, 0, 0, 4, 9, 18, 18, 18, 22, 22, 18, 22, 45, 31, 0, 0, 0, 0]}, {'name': 'Tuesday', 'data': [0, 0, 0, 0, 0, 0, 0, 0, 0, 27, 54, 63, 50, 40, 40, 36, 31, 59, 100, 59, 0, 0, 0, 0]}, {'name': 'Wednesday', 'data': [0, 0, 0, 0, 0, 0, 0, 0, 0, 9, 18, 22, 18, 9, 31, 72, 50, 36, 27, 13, 0, 0, 0, 0]}, {'name': 'Thursday', 'data': [0, 0, 0, 0, 0, 0, 0, 0, 0, 13, 31, 40, 36, 27, 27, 36, 36, 31, 59, 50, 0, 0, 0, 0]}, {'name': 'Friday', 'data': [0, 0, 0, 0, 0, 0, 0, 0, 0, 13, 45, 59, 50, 45, 50, 54, 50, 59, 72, 45, 0, 0, 0, 0]}, {'name': 'Saturday', 'data': [0, 0, 0, 0, 0, 0, 0, 0, 0, 18, 45, 77, 81, 72, 72, 81, 81, 54, 0, 0, 0, 0, 0, 0]}, {'name': 'Sunday', 'data': [0, 0, 0, 0, 0, 0, 0, 0, 0, 0, 0, 0, 0, 0, 0, 0, 0, 0, 0, 0, 0, 0, 0, 0]}]",45.5189286,9.1704949,"[25, 60]",
64,ChIJl3K-AB_HhkcRijDIF3euUF0,New Malibu,"Viale Monza, 82, 20127 Milano MI, Italy","['beauty_salon', 'health', 'point_of_interest', 'establishment']",4.4,19.0,+39 02 261 3626,,,45.4959768,9.2199153,,
65,ChIJS-B_i5vGhkcRUdIlA3D3NgE,Armonia Del Corpo,"Viale Regina Margherita, 28, 20122 Milano MI, Italy","['beauty_salon', 'hair_care', 'spa', 'point_of_interest', 'establishment']",5.0,12.0,+39 02 5412 2776,,"[{'name': 'Monday', 'data': [0, 0, 0, 0, 0, 0, 0, 0, 0, 0, 0, 0, 0, 0, 0, 0, 0, 0, 0, 0, 0, 0, 0, 0]}, {'name': 'Tuesday', 'data': [0, 0, 0, 0, 0, 0, 0, 0, 0, 53, 86, 100, 80, 66, 53, 40, 46, 53, 46, 0, 0, 0, 0, 0]}, {'name': 'Wednesday', 'data': [0, 0, 0, 0, 0, 0, 0, 0, 0, 20, 40, 53, 53, 40, 33, 40, 66, 73, 60, 0, 0, 0, 0, 0]}, {'name': 'Thursday', 'data': [0, 0, 0, 0, 0, 0, 0, 0, 0, 0, 0, 0, 0, 0, 0, 0, 0, 0, 0, 0, 0, 0, 0, 0]}, {'name': 'Friday', 'data': [0, 0, 0, 0, 0, 0, 0, 0, 0, 13, 40, 53, 46, 46, 73, 80, 53, 60, 93, 0, 0, 0, 0, 0]}, {'name': 'Saturday', 'data': [0, 0, 0, 0, 0, 0, 0, 0, 0, 60, 80, 66, 46, 53, 53, 0, 0, 0, 0, 0, 0, 0, 0, 0]}, {'name': 'Sunday', 'data': [0, 0, 0, 0, 0, 0, 0, 0, 0, 0, 0, 0, 0, 0, 0, 0, 0, 0, 0, 0, 0, 0, 0, 0]}]",45.4605146,9.2070262,,
66,ChIJ_aEGcwMuVUARpyWetxGtYdg,Studio Olistico Euclide,"Via Galvano Fiamma, 5, 20129 Milano MI, Italy","['beauty_salon', 'hair_care', 'health', 'point_of_interest', 'establishment']",3.7,6.0,+39 02 8364 4463,,,45.46253369999999,9.211217399999999,,
67,ChIJwwTb68HGhkcRYGWsv7xw-RE,Spazio Aurea,"Via Giovanni Masera, 6, 20129 Milano MI, Italy","['beauty_salon', 'spa', 'gym', 'health', 'point_of_interest', 'establishment']",4.3,6.0,+39 02 2614 6653,,,45.4789585,9.2107095,,
68,ChIJDyDmDNjGhkcRDb3VE-0Xe5Y,Pharmacy Melchiorre Gioia,"Via Melchiorre Gioia, 135, 20125 Milano MI, Italy","['beauty_salon', 'pharmacy', 'health', 'point_of_interest', 'store', 'establishment']",4.3,133.0,+39 02 6671 0454,,"[{'name': 'Monday', 'data': [0, 0, 0, 0, 0, 0, 0, 0, 6, 29, 75, 100, 69, 25, 0, 31, 67, 84, 62, 26, 0, 0, 0, 0]}, {'name': 'Tuesday', 'data': [0, 0, 0, 0, 0, 0, 0, 0, 14, 46, 90, 100, 64, 26, 0, 40, 78, 100, 81, 42, 0, 0, 0, 0]}, {'name': 'Wednesday', 'data': [0, 0, 0, 0, 0, 0, 0, 0, 23, 73, 75, 70, 60, 23, 0, 20, 54, 81, 63, 26, 0, 0, 0, 0]}, {'name': 'Thursday', 'data': [0, 0, 0, 0, 0, 0, 0, 0, 17, 46, 76, 76, 47, 17, 0, 53, 84, 76, 74, 37, 0, 0, 0, 0]}, {'name': 'Friday', 'data': [0, 0, 0, 0, 0, 0, 0, 0, 13, 40, 75, 89, 64, 30, 0, 74, 69, 85, 69, 31, 0, 0, 0, 0]}, {'name': 'Saturday', 'data': [0, 0, 0, 0, 0, 0, 0, 0, 3, 25, 79, 95, 45, 8, 0, 21, 76, 98, 46, 7, 0, 0, 0, 0]}, {'name': 'Sunday', 'data': [0, 0, 0, 0, 0, 0, 0, 0, 0, 0, 0, 0, 0, 0, 0, 0, 0, 0, 0, 0, 0, 0, 0, 0]}]",45.4945943,9.2065208,"[15, 15]",
69,ChIJMVL27aXEhkcR1ROWkan-hAA,Estetica E Benessere Mara Rozzano,"Via Europa, 94, 20089 Rozzano MI, Italy","['beauty_salon', 'point_of_interest', 'establishment']",4.6,18.0,+39 02 5751 4525,,,45.3939221,9.167557,,
70,ChIJi0lgeSzHhkcR12sRd9jofms,Centro Estetico Diana Braghi,"Via Scipio Slataper, 17, 20125 Milano MI, Italy","['spa', 'beauty_salon', 'point_of_interest', 'establishment']",4.3,15.0,+39 02 6901 6327,,,45.5002764,9.1987291,,
71,ChIJN3RiERu0hkcRHNYGGQJ6diM,Devero SPA Wellness Center,"Largo J. F. Kennedy, 1, 20873 Cavenago di Brianza MB, Italy","['spa', 'beauty_salon', 'doctor', 'health', 'point_of_interest', 'establishment']",4.6,33.0,+39 02 9533 9238,,,45.58029399999999,9.416591,,
72,ChIJwdYY95PGhkcR8QdcyLRM1fA,Mastoplastica additiva Milano - Lunimedica,"Via Gustavo Modena, 26, 20129 Milano MI, Italy","['beauty_salon', 'doctor', 'health', 'point_of_interest', 'establishment']",4.5,13.0,+39 02 7104 0794,,,45.4707295,9.2163056,,
73,ChIJN82ZSlXBhkcRk3Oq09LJt7g,Sale è Salute Srl,"Via S. Pietro All'Orto, 9, 20121 Milano MI, Italy","['beauty_salon', 'spa', 'point_of_interest', 'establishment']",,,+39 02 784924,,,45.4663159,9.1952559,,
74,ChIJpUPH4uHAhkcRq5DJ6zqejU0,"CENTRO DENTALE LUGANO - Studio dentistico, Dentista, Medicina estetica , Bovisa, Ghisolfa","Piazzale Lugano, 9, 20158 Milano MI, Italy","['dentist', 'beauty_salon', 'doctor', 'spa', 'health', 'point_of_interest', 'establishment']",4.0,5.0,+39 02 3931 0160,,,45.4979859,9.166333999999999,,
75,ChIJh6qKLR_HhkcRUGuwWglT5vE,Vanysia vanità e bellezza (centro estetico),"Viale Monza, 117, 20127 Milano MI, Italy","['beauty_salon', 'hair_care', 'spa', 'point_of_interest', 'establishment']",5.0,51.0,+39 02 261 3357,,"[{'name': 'Monday', 'data': [0, 0, 0, 0, 0, 0, 0, 0, 0, 0, 0, 0, 0, 0, 0, 0, 0, 0, 0, 0, 0, 0, 0, 0]}, {'name': 'Tuesday', 'data': [0, 0, 0, 0, 0, 0, 0, 0, 0, 0, 66, 66, 58, 75, 83, 66, 41, 33, 25, 0, 0, 0, 0, 0]}, {'name': 'Wednesday', 'data': [0, 0, 0, 0, 0, 0, 0, 0, 0, 0, 0, 0, 0, 0, 0, 0, 0, 0, 0, 0, 0, 0, 0, 0]}, {'name': 'Thursday', 'data': [0, 0, 0, 0, 0, 0, 0, 0, 0, 0, 16, 33, 50, 58, 58, 50, 50, 58, 50, 25, 0, 0, 0, 0]}, {'name': 'Friday', 'data': [0, 0, 0, 0, 0, 0, 0, 0, 0, 41, 75, 50, 41, 50, 41, 41, 66, 100, 83, 0, 0, 0, 0, 0]}, {'name': 'Saturday', 'data': [0, 0, 0, 0, 0, 0, 0, 0, 0, 41, 66, 83, 91, 83, 75, 66, 58, 33, 0, 0, 0, 0, 0, 0]}, {'name': 'Sunday', 'data': [0, 0, 0, 0, 0, 0, 0, 0, 0, 0, 0, 0, 0, 0, 0, 0, 0, 0, 0, 0, 0, 0, 0, 0]}]",45.49806009999999,9.220111399999999,,
76,ChIJlbmkQFXBhkcRGpK0tMoDFC0,Centro Estetico MySunny - Estetica & Benessere,"Corso di Porta Ticinese, 4, 20123 Milano MI, Italy","['beauty_salon', 'point_of_interest', 'establishment']",4.2,33.0,+39 02 8942 1443,,"[{'name': 'Monday', 'data': [0, 0, 0, 0, 0, 0, 0, 0, 0, 0, 68, 63, 57, 68, 73, 63, 57, 63, 52, 31, 0, 0, 0, 0]}, {'name': 'Tuesday', 'data': [0, 0, 0, 0, 0, 0, 0, 0, 0, 0, 47, 52, 52, 42, 31, 31, 47, 63, 63, 42, 0, 0, 0, 0]}, {'name': 'Wednesday', 'data': [0, 0, 0, 0, 0, 0, 0, 0, 0, 0, 47, 31, 42, 57, 57, 52, 52, 63, 68, 57, 0, 0, 0, 0]}, {'name': 'Thursday', 'data': [0, 0, 0, 0, 0, 0, 0, 0, 0, 0, 63, 57, 52, 73, 84, 63, 47, 52, 52, 31, 0, 0, 0, 0]}, {'name': 'Friday', 'data': [0, 0, 0, 0, 0, 0, 0, 0, 0, 0, 52, 84, 100, 89, 68, 52, 94, 52, 42, 52, 0, 0, 0, 0]}, {'name': 'Saturday', 'data': [0, 0, 0, 0, 0, 0, 0, 0, 0, 0, 36, 73, 100, 78, 47, 47, 73, 78, 47, 0, 0, 0, 0, 0]}, {'name': 'Sunday', 'data': [0, 0, 0, 0, 0, 0, 0, 0, 0, 0, 0, 0, 0, 0, 0, 0, 0, 0, 0, 0, 0, 0, 0, 0]}]",45.45981339999999,9.1810758,,
77,ChIJNZ9qdT3qhkcRdZlfCEIjdmE,Game Dance & Fitness Academy,"Via Vittorio Alfieri, 30, 20019 Settimo Milanese MI, Italy","['beauty_salon', 'hair_care', 'bar', 'gym', 'health', 'point_of_interest', 'establishment']",4.2,6.0,+39 02 8347 8077,,"[{'name': 'Monday', 'data': [0, 0, 0, 0, 0, 0, 0, 0, 0, 0, 1, 1, 1, 1, 1, 7, 26, 42, 37, 27, 38, 60, 60, 0]}, {'name': 'Tuesday', 'data': [0, 0, 0, 0, 0, 0, 0, 0, 0, 0, 1, 1, 1, 1, 2, 9, 24, 46, 65, 80, 87, 74, 41, 0]}, {'name': 'Wednesday', 'data': [0, 0, 0, 0, 0, 0, 0, 0, 0, 0, 1, 1, 1, 1, 1, 1, 12, 38, 66, 73, 65, 65, 57, 0]}, {'name': 'Thursday', 'data': [0, 0, 0, 0, 0, 0, 0, 0, 0, 0, 1, 1, 1, 1, 1, 2, 7, 18, 34, 49, 52, 42, 24, 0]}, {'name': 'Friday', 'data': [0, 0, 0, 0, 0, 0, 0, 0, 0, 0, 1, 1, 1, 1, 2, 15, 45, 84, 100, 76, 36, 10, 0, 0]}, {'name': 'Saturday', 'data': [0, 0, 0, 0, 0, 0, 0, 0, 0, 0, 0, 0, 0, 0, 0, 0, 0, 0, 0, 0, 0, 0, 0, 0]}, {'name': 'Sunday', 'data': [0, 0, 0, 0, 0, 0, 0, 0, 0, 0, 0, 0, 0, 0, 0, 0, 0, 0, 0, 0, 0, 0, 0, 0]}]",45.48608309999999,9.0597465,,
78,ChIJCYbWKyzBhkcRgITIrQ0IIZ8,Fascino,"Via Ugo Bassi, 18, 20159 Milano MI, Italy","['beauty_salon', 'hair_care', 'point_of_interest', 'establishment']",4.7,26.0,+39 02 688 8313,,"[{'name': 'Monday', 'data': [0, 0, 0, 0, 0, 0, 0, 0, 0, 23, 35, 52, 76, 88, 100, 94, 82, 58, 41, 0, 0, 0, 0, 0]}, {'name': 'Tuesday', 'data': [0, 0, 0, 0, 0, 0, 0, 0, 0, 52, 47, 52, 70, 82, 70, 47, 52, 82, 70, 0, 0, 0, 0, 0]}, {'name': 'Wednesday', 'data': [0, 0, 0, 0, 0, 0, 0, 0, 0, 52, 35, 35, 52, 52, 35, 17, 23, 35, 35, 0, 0, 0, 0, 0]}, {'name': 'Thursday', 'data': [0, 0, 0, 0, 0, 0, 0, 0, 0, 58, 82, 82, 64, 52, 58, 70, 76, 64, 47, 0, 0, 0, 0, 0]}, {'name': 'Friday', 'data': [0, 0, 0, 0, 0, 0, 0, 0, 0, 76, 82, 35, 41, 47, 41, 52, 88, 100, 70, 0, 0, 0, 0, 0]}, {'name': 'Saturday', 'data': [0, 0, 0, 0, 0, 0, 0, 0, 0, 41, 76, 88, 70, 52, 52, 70, 76, 58, 35, 0, 0, 0, 0, 0]}, {'name': 'Sunday', 'data': [0, 0, 0, 0, 0, 0, 0, 0, 0, 0, 0, 0, 0, 0, 0, 0, 0, 0, 0, 0, 0, 0, 0, 0]}]",45.4893077,9.186188,,
79,ChIJ-TadJgLEhkcRH4wWvdBmKlw,Carolin Cruz,"Viale Bligny, 41, 20136 Milano MI, Italy","['beauty_salon', 'hair_care', 'point_of_interest', 'establishment']",4.3,28.0,+39 02 5832 5580,,"[{'name': 'Monday', 'data': [0, 0, 0, 0, 0, 0, 0, 0, 0, 0, 0, 0, 0, 0, 0, 0, 0, 0, 0, 0, 0, 0, 0, 0]}, {'name': 'Tuesday', 'data': [0, 0, 0, 0, 0, 0, 0, 0, 0, 57, 90, 90, 63, 42, 48, 63, 69, 60, 42, 24, 0, 0, 0, 0]}, {'name': 'Wednesday', 'data': [0, 0, 0, 0, 0, 0, 0, 0, 0, 33, 96, 78, 63, 72, 63, 57, 66, 69, 51, 27, 0, 0, 0, 0]}, {'name': 'Thursday', 'data': [0, 0, 0, 0, 0, 0, 0, 0, 0, 27, 51, 72, 69, 51, 45, 63, 81, 75, 45, 18, 0, 0, 0, 0]}, {'name': 'Friday', 'data': [0, 0, 0, 0, 0, 0, 0, 0, 0, 33, 75, 66, 33, 36, 63, 81, 90, 93, 84, 54, 0, 0, 0, 0]}, {'name': 'Saturday', 'data': [0, 0, 0, 0, 0, 0, 0, 0, 0, 42, 81, 100, 81, 48, 39, 60, 84, 84, 51, 21, 0, 0, 0, 0]}, {'name': 'Sunday', 'data': [0, 0, 0, 0, 0, 0, 0, 0, 0, 0, 0, 0, 0, 0, 0, 0, 0, 0, 0, 0, 0, 0, 0, 0]}]",45.4510564,9.1953582,,
80,ChIJzdPuO6zGhkcRbxZzDdg0kHs,Mondadori Megastore,"Piazza del Duomo, 1, 20121 Milano MI, Italy","['book_store', 'movie_rental', 'point_of_interest', 'store', 'establishment']",4.2,7234.0,+39 02 454411,,"[{'name': 'Monday', 'data': [0, 0, 0, 0, 0, 0, 0, 0, 0, 0, 0, 0, 0, 0, 0, 0, 0, 0, 0, 0, 0, 0, 0, 0]}, {'name': 'Tuesday', 'data': [0, 0, 0, 0, 0, 0, 0, 0, 0, 11, 22, 27, 32, 39, 43, 40, 39, 39, 36, 27, 15, 6, 0, 0]}, {'name': 'Wednesday', 'data': [0, 0, 0, 0, 0, 0, 0, 0, 0, 0, 0, 0, 0, 0, 0, 0, 0, 0, 0, 0, 0, 0, 0, 0]}, {'name': 'Thursday', 'data': [0, 0, 0, 0, 0, 0, 0, 0, 0, 0, 0, 0, 0, 0, 0, 0, 0, 0, 0, 0, 0, 0, 0, 0]}, {'name': 'Friday', 'data': [0, 0, 0, 0, 0, 0, 0, 0, 0, 0, 0, 0, 0, 0, 0, 0, 0, 0, 0, 0, 0, 0, 0, 0]}, {'name': 'Saturday', 'data': [0, 0, 0, 0, 0, 0, 0, 0, 0, 0, 0, 0, 0, 0, 0, 0, 0, 0, 0, 0, 0, 0, 0, 0]}, {'name': 'Sunday', 'data': [0, 0, 0, 0, 0, 0, 0, 0, 0, 0, 0, 0, 0, 0, 0, 0, 0, 0, 0, 0, 0, 0, 0, 0]}]",45.4635774,9.1894319,"[45, 45]",
81,ChIJdUYdEAHEhkcR_dS48uyGHlQ,Libreria Birdland Milano,"Via Vettabbia, 9, 20122 Milano MI, Italy","['book_store', 'electronics_store', 'home_goods_store', 'point_of_interest', 'store', 'establishment']",4.8,87.0,+39 02 5831 0856,,,45.455685,9.184396999999999,,
82,ChIJKzwJhCzHhkcR74zZCEpwD0o,bastard store,"Via Scipio Slataper, 19, 20125 Milano MI, Italy","['shoe_store', 'book_store', 'point_of_interest', 'clothing_store', 'store', 'establishment']",4.7,175.0,+39 02 4070 8233,,"[{'name': 'Monday', 'data': [0, 0, 0, 0, 0, 0, 0, 0, 0, 0, 0, 0, 0, 0, 0, 0, 0, 0, 0, 0, 0, 0, 0, 0]}, {'name': 'Tuesday', 'data': [0, 0, 0, 0, 0, 0, 0, 0, 0, 0, 3, 6, 12, 0, 0, 3, 6, 16, 29, 29, 0, 0, 0, 0]}, {'name': 'Wednesday', 'data': [0, 0, 0, 0, 0, 0, 0, 0, 0, 0, 0, 0, 0, 0, 0, 0, 0, 0, 0, 0, 0, 0, 0, 0]}, {'name': 'Thursday', 'data': [0, 0, 0, 0, 0, 0, 0, 0, 0, 0, 6, 9, 12, 0, 0, 12, 25, 41, 45, 32, 0, 0, 0, 0]}, {'name': 'Friday', 'data': [0, 0, 0, 0, 0, 0, 0, 0, 0, 0, 6, 9, 9, 0, 0, 6, 19, 32, 38, 32, 0, 0, 0, 0]}, {'name': 'Saturday', 'data': [0, 0, 0, 0, 0, 0, 0, 0, 0, 0, 22, 58, 58, 0, 0, 25, 70, 100, 90, 58, 0, 0, 0, 0]}, {'name': 'Sunday', 'data': [0, 0, 0, 0, 0, 0, 0, 0, 0, 0, 0, 0, 0, 0, 0, 0, 0, 0, 0, 0, 0, 0, 0, 0]}]",45.50031,9.198407999999999,,
83,ChIJbx27GlHBhkcRxuLteTbwdxQ,Library Of Entertainment,"Via Terraggio, 11, 20123 Milano MI, Italy","['book_store', 'point_of_interest', 'store', 'establishment']",4.2,27.0,+39 02 8645 1730,,,45.465498,9.175989999999999,,
84,ChIJGRT9ocfGhkcRkr5CUKRrNrA,Bloodbuster,"Via Panfilo Castaldi, 21, 20124 Milano MI, Italy","['book_store', 'electronics_store', 'home_goods_store', 'point_of_interest', 'store', 'establishment']",4.6,104.0,+39 02 2940 4304,,,45.4771519,9.2022301,"[25, 25]",
85,ChIJLT9EFsHGhkcRFeczNEO_08Y,Libreria Popolare,"Via Alessandro Tadino, 18, 20124 Milano MI, Italy","['book_store', 'point_of_interest', 'store', 'establishment']",4.4,84.0,+39 02 2951 3268,,"[{'name': 'Monday', 'data': [0, 0, 0, 0, 0, 0, 0, 0, 0, 0, 0, 0, 0, 0, 0, 31, 54, 72, 68, 45, 0, 0, 0, 0]}, {'name': 'Tuesday', 'data': [0, 0, 0, 0, 0, 0, 0, 0, 0, 0, 77, 72, 50, 50, 72, 81, 81, 68, 45, 27, 0, 0, 0, 0]}, {'name': 'Wednesday', 'data': [0, 0, 0, 0, 0, 0, 0, 0, 0, 0, 77, 45, 27, 54, 72, 63, 40, 40, 50, 40, 0, 0, 0, 0]}, {'name': 'Thursday', 'data': [0, 0, 0, 0, 0, 0, 0, 0, 0, 0, 54, 59, 68, 86, 95, 86, 63, 40, 22, 9, 0, 0, 0, 0]}, {'name': 'Friday', 'data': [0, 0, 0, 0, 0, 0, 0, 0, 0, 0, 31, 50, 59, 59, 54, 59, 59, 50, 36, 22, 0, 0, 0, 0]}, {'name': 'Saturday', 'data': [0, 0, 0, 0, 0, 0, 0, 0, 0, 0, 4, 50, 59, 22, 36, 63, 90, 100, 81, 54, 0, 0, 0, 0]}, {'name': 'Sunday', 'data': [0, 0, 0, 0, 0, 0, 0, 0, 0, 0, 0, 0, 0, 0, 0, 0, 0, 0, 0, 0, 0, 0, 0, 0]}]",45.4787066,9.207425499999998,"[45, 45]",
86,ChIJ4aWTGcLGhkcRCVJqRfz0ueg,Aleph,"Piazza Lima, 20124 Milano MI, Italy","['book_store', 'point_of_interest', 'store', 'establishment']",4.4,168.0,+39 02 2952 6546,,,45.4803937,9.2111494,"[45, 45]",
87,ChIJo60uia_GhkcRAhxvOBoz6hA,Mondadori Bookstore - Rizzoli Galleria,"Galleria Vittorio Emanuele II, 11/12, 20121 Milano MI, Italy","['book_store', 'point_of_interest', 'store', 'establishment']",4.4,1275.0,+39 02 8646 1071,,"[{'name': 'Monday', 'data': [0, 0, 0, 0, 0, 0, 0, 0, 0, 0, 0, 0, 0, 0, 0, 0, 0, 0, 0, 0, 0, 0, 0, 0]}, {'name': 'Tuesday', 'data': [0, 0, 0, 0, 0, 0, 0, 0, 0, 9, 20, 32, 39, 38, 35, 36, 36, 32, 22, 11, 0, 0, 0, 0]}, {'name': 'Wednesday', 'data': [0, 0, 0, 0, 0, 0, 0, 0, 0, 0, 0, 0, 0, 0, 0, 0, 0, 0, 0, 0, 0, 0, 0, 0]}, {'name': 'Thursday', 'data': [0, 0, 0, 0, 0, 0, 0, 0, 0, 0, 0, 0, 0, 0, 0, 0, 0, 0, 0, 0, 0, 0, 0, 0]}, {'name': 'Friday', 'data': [0, 0, 0, 0, 0, 0, 0, 0, 0, 0, 0, 0, 0, 0, 0, 0, 0, 0, 0, 0, 0, 0, 0, 0]}, {'name': 'Saturday', 'data': [0, 0, 0, 0, 0, 0, 0, 0, 0, 0, 0, 0, 0, 0, 0, 0, 0, 0, 0, 0, 0, 0, 0, 0]}, {'name': 'Sunday', 'data': [0, 0, 0, 0, 0, 0, 0, 0, 0, 0, 0, 0, 0, 0, 0, 0, 0, 0, 0, 0, 0, 0, 0, 0]}]",45.46635419999999,9.189914899999998,"[30, 30]",
88,ChIJpTUAUcLGhkcRLSgBW4ulOUA,The Library of Children S. R L,"Via Alessandro Tadino, 53, 20124 Milano MI, Italy","['book_store', 'point_of_interest', 'store', 'establishment']",4.4,341.0,+39 02 2953 3555,,"[{'name': 'Monday', 'data': [0, 0, 0, 0, 0, 0, 0, 0, 0, 0, 0, 0, 0, 0, 0, 14, 25, 25, 15, 5, 0, 0, 0, 0]}, {'name': 'Tuesday', 'data': [0, 0, 0, 0, 0, 0, 0, 0, 0, 0, 7, 26, 33, 16, 11, 19, 25, 23, 14, 5, 0, 0, 0, 0]}, {'name': 'Wednesday', 'data': [0, 0, 0, 0, 0, 0, 0, 0, 0, 0, 8, 19, 25, 19, 13, 14, 17, 19, 16, 11, 0, 0, 0, 0]}, {'name': 'Thursday', 'data': [0, 0, 0, 0, 0, 0, 0, 0, 0, 0, 9, 20, 21, 11, 8, 17, 29, 26, 14, 3, 0, 0, 0, 0]}, {'name': 'Friday', 'data': [0, 0, 0, 0, 0, 0, 0, 0, 0, 0, 12, 24, 21, 12, 15, 23, 29, 28, 20, 11, 0, 0, 0, 0]}, {'name': 'Saturday', 'data': [0, 0, 0, 0, 0, 0, 0, 0, 0, 0, 23, 56, 38, 10, 15, 47, 89, 100, 66, 26, 0, 0, 0, 0]}, {'name': 'Sunday', 'data': [0, 0, 0, 0, 0, 0, 0, 0, 0, 0, 0, 0, 0, 0, 0, 0, 0, 0, 0, 0, 0, 0, 0, 0]}]",45.481962,9.210353399999999,"[45, 45]",
89,ChIJD4VUwavGhkcRY8nWGuNulhY,Library Soul Group - Esoteric Ecumenical,"Galleria Unione, 1, 20122 Milano MI, Italy","['book_store', 'point_of_interest', 'store', 'establishment']",4.5,716.0,+39 02 878422,,"[{'name': 'Monday', 'data': [0, 0, 0, 0, 0, 0, 0, 0, 0, 0, 6, 12, 13, 12, 18, 26, 27, 21, 14, 9, 0, 0, 0, 0]}, {'name': 'Tuesday', 'data': [0, 0, 0, 0, 0, 0, 0, 0, 0, 0, 4, 12, 22, 25, 22, 21, 24, 26, 21, 14, 0, 0, 0, 0]}, {'name': 'Wednesday', 'data': [0, 0, 0, 0, 0, 0, 0, 0, 0, 0, 8, 13, 17, 19, 19, 19, 24, 30, 29, 19, 0, 0, 0, 0]}, {'name': 'Thursday', 'data': [0, 0, 0, 0, 0, 0, 0, 0, 0, 0, 9, 15, 20, 24, 25, 24, 23, 23, 22, 17, 0, 0, 0, 0]}, {'name': 'Friday', 'data': [0, 0, 0, 0, 0, 0, 0, 0, 0, 0, 8, 19, 23, 24, 32, 32, 22, 24, 26, 11, 0, 0, 0, 0]}, {'name': 'Saturday', 'data': [0, 0, 0, 0, 0, 0, 0, 0, 0, 0, 8, 15, 20, 25, 39, 70, 100, 95, 59, 23, 0, 0, 0, 0]}, {'name': 'Sunday', 'data': [0, 0, 0, 0, 0, 0, 0, 0, 0, 0, 0, 0, 0, 0, 28, 52, 78, 81, 58, 28, 0, 0, 0, 0]}]",45.4615464,9.1875123,"[60, 60]",
90,ChIJR_4tkmTBhkcRKaEoWdYg9n0,Mondadori Megastore,"Via Marghera, 28, 20149 Milano MI, Italy","['book_store', 'movie_rental', 'bar', 'point_of_interest', 'store', 'establishment']",4.2,3433.0,+39 02 480471,,"[{'name': 'Monday', 'data': [0, 0, 0, 0, 0, 0, 0, 0, 0, 0, 0, 0, 0, 0, 0, 0, 0, 0, 0, 0, 0, 0, 0, 0]}, {'name': 'Tuesday', 'data': [0, 0, 0, 0, 0, 0, 0, 0, 0, 11, 22, 31, 33, 28, 27, 33, 44, 48, 38, 22, 9, 0, 0, 0]}, {'name': 'Wednesday', 'data': [0, 0, 0, 0, 0, 0, 0, 0, 0, 0, 0, 0, 0, 0, 0, 0, 0, 0, 0, 0, 0, 0, 0, 0]}, {'name': 'Thursday', 'data': [0, 0, 0, 0, 0, 0, 0, 0, 0, 0, 0, 0, 0, 0, 0, 0, 0, 0, 0, 0, 0, 0, 0, 0]}, {'name': 'Friday', 'data': [0, 0, 0, 0, 0, 0, 0, 0, 0, 0, 0, 0, 0, 0, 0, 0, 0, 0, 0, 0, 0, 0, 0, 0]}, {'name': 'Saturday', 'data': [0, 0, 0, 0, 0, 0, 0, 0, 0, 0, 0, 0, 0, 0, 0, 0, 0, 0, 0, 0, 0, 0, 0, 0]}, {'name': 'Sunday', 'data': [0, 0, 0, 0, 0, 0, 0, 0, 0, 0, 0, 0, 0, 0, 0, 0, 0, 0, 0, 0, 0, 0, 0, 0]}]",45.46717839999999,9.151221999999999,"[45, 45]",
91,ChIJ5Yzhq1HBhkcRs6DVnB9dpTE,Sports Library,"Via Giosuè Carducci, 9, 20123 Milano MI, Italy","['book_store', 'point_of_interest', 'store', 'establishment']",4.2,44.0,+39 02 805 5355,,,45.466453,9.176231,"[30, 30]",
92,ChIJySENMIjGhkcRjNepJJY9IRo,Libreria del Convegno,"Via Lomellina, 35, 20133 Milano MI, Italy","['book_store', 'point_of_interest', 'store', 'establishment']",4.5,166.0,+39 02 743556,,"[{'name': 'Monday', 'data': [0, 0, 0, 0, 0, 0, 0, 0, 0, 0, 0, 0, 0, 0, 0, 27, 22, 22, 50, 77, 0, 0, 0, 0]}, {'name': 'Tuesday', 'data': [0, 0, 0, 0, 0, 0, 0, 0, 0, 4, 22, 18, 18, 18, 0, 13, 18, 31, 40, 22, 0, 0, 0, 0]}, {'name': 'Wednesday', 'data': [0, 0, 0, 0, 0, 0, 0, 0, 0, 18, 45, 54, 36, 13, 0, 13, 27, 36, 31, 18, 0, 0, 0, 0]}, {'name': 'Thursday', 'data': [0, 0, 0, 0, 0, 0, 0, 0, 0, 13, 27, 36, 31, 18, 0, 22, 31, 36, 27, 18, 0, 0, 0, 0]}, {'name': 'Friday', 'data': [0, 0, 0, 0, 0, 0, 0, 0, 0, 13, 31, 36, 27, 13, 0, 18, 40, 45, 45, 72, 0, 0, 0, 0]}, {'name': 'Saturday', 'data': [0, 0, 0, 0, 0, 0, 0, 0, 0, 0, 31, 100, 45, 4, 0, 31, 54, 54, 36, 18, 0, 0, 0, 0]}, {'name': 'Sunday', 'data': [0, 0, 0, 0, 0, 0, 0, 0, 0, 0, 0, 0, 0, 0, 0, 0, 0, 0, 0, 0, 0, 0, 0, 0]}]",45.4660705,9.2299777,"[30, 30]",
93,ChIJyealfcHGhkcR53sbCiZ_Nes,a+mbookstore,"Via Alessandro Tadino, 30, 20124 Milano MI, Italy","['book_store', 'art_gallery', 'point_of_interest', 'store', 'establishment']",3.0,,,,,45.479941,9.208660499999999,,
94,ChIJZ9DeIOvDhkcR4yev4xcv6O4,Mondadori Bookstore,"Via Ettore Ponti, 21, 20143 Milano MI, Italy","['book_store', 'point_of_interest', 'store', 'establishment']",4.3,256.0,+39 02 3966 1919,,"[{'name': 'Monday', 'data': [0, 0, 0, 0, 0, 0, 0, 0, 0, 0, 0, 0, 0, 0, 0, 0, 0, 0, 0, 0, 0, 0, 0, 0]}, {'name': 'Tuesday', 'data': [0, 0, 0, 0, 0, 0, 0, 0, 0, 10, 25, 38, 38, 27, 22, 34, 53, 56, 37, 15, 0, 0, 0, 0]}, {'name': 'Wednesday', 'data': [0, 0, 0, 0, 0, 0, 0, 0, 0, 0, 0, 0, 0, 0, 0, 0, 0, 0, 0, 0, 0, 0, 0, 0]}, {'name': 'Thursday', 'data': [0, 0, 0, 0, 0, 0, 0, 0, 0, 0, 0, 0, 0, 0, 0, 0, 0, 0, 0, 0, 0, 0, 0, 0]}, {'name': 'Friday', 'data': [0, 0, 0, 0, 0, 0, 0, 0, 0, 0, 0, 0, 0, 0, 0, 0, 0, 0, 0, 0, 0, 0, 0, 0]}, {'name': 'Saturday', 'data': [0, 0, 0, 0, 0, 0, 0, 0, 0, 0, 0, 0, 0, 0, 0, 0, 0, 0, 0, 0, 0, 0, 0, 0]}, {'name': 'Sunday', 'data': [0, 0, 0, 0, 0, 0, 0, 0, 0, 0, 0, 0, 0, 0, 0, 0, 0, 0, 0, 0, 0, 0, 0, 0]}]",45.4419358,9.1570207,"[60, 60]",
95,ChIJm8MXuPW4hkcRuTA6xQjzNNg,Mondadori,"Viale Italia, 555 c/o Centro Commerciale Vulcano, 20099 Sesto San Giovanni MI, Italy","['book_store', 'point_of_interest', 'store', 'establishment']",4.1,495.0,+39 02 4549 8767,,"[{'name': 'Monday', 'data': [0, 0, 0, 0, 0, 0, 0, 0, 0, 5, 13, 23, 30, 30, 28, 30, 36, 45, 46, 31, 10, 0, 0, 0]}, {'name': 'Tuesday', 'data': [0, 0, 0, 0, 0, 0, 0, 0, 0, 6, 21, 31, 26, 21, 26, 35, 35, 28, 18, 8, 1, 0, 0, 0]}, {'name': 'Wednesday', 'data': [0, 0, 0, 0, 0, 0, 0, 0, 0, 5, 11, 11, 10, 15, 23, 18, 11, 11, 11, 8, 1, 0, 0, 0]}, {'name': 'Thursday', 'data': [0, 0, 0, 0, 0, 0, 0, 0, 0, 6, 15, 25, 25, 18, 13, 16, 30, 38, 33, 18, 6, 0, 0, 0]}, {'name': 'Friday', 'data': [0, 0, 0, 0, 0, 0, 0, 0, 0, 3, 10, 18, 25, 26, 25, 28, 35, 36, 28, 15, 5, 0, 0, 0]}, {'name': 'Saturday', 'data': [0, 0, 0, 0, 0, 0, 0, 0, 0, 11, 31, 51, 55, 46, 50, 71, 90, 88, 66, 38, 15, 5, 0, 0]}, {'name': 'Sunday', 'data': [0, 0, 0, 0, 0, 0, 0, 0, 0, 11, 31, 46, 40, 25, 30, 61, 96, 100, 68, 30, 8, 0, 0, 0]}]",45.5499565,9.2573513,"[20, 20]",
96,ChIJDwzms63GhkcRtT1O13aNHfw,Zanaria Filatelici,"Via Santa Margherita, 6, 20121 Milano MI, Italy","['book_store', 'finance', 'home_goods_store', 'point_of_interest', 'store', 'establishment']",4.8,6.0,+39 02 805 2427,,,45.4654957,9.1881569,,
97,ChIJNYWrI-HDhkcR3R63ILyoS94,Oldani Cartoleria,"Via Cola di Rienzo, 2, 20144 Milano MI, Italy","['book_store', 'point_of_interest', 'store', 'establishment']",4.3,14.0,+39 02 474746,,"[{'name': 'Monday', 'data': [0, 0, 0, 0, 0, 0, 0, 9, 23, 42, 61, 66, 57, 38, 33, 57, 95, 85, 42, 0, 0, 0, 0, 0]}, {'name': 'Tuesday', 'data': [0, 0, 0, 0, 0, 0, 0, 14, 28, 52, 76, 85, 80, 71, 66, 71, 71, 57, 38, 0, 0, 0, 0, 0]}, {'name': 'Wednesday', 'data': [0, 0, 0, 0, 0, 0, 0, 14, 42, 52, 52, 57, 57, 42, 42, 61, 85, 66, 28, 0, 0, 0, 0, 0]}, {'name': 'Thursday', 'data': [0, 0, 0, 0, 0, 0, 0, 9, 19, 28, 38, 38, 33, 28, 19, 23, 57, 85, 66, 0, 0, 0, 0, 0]}, {'name': 'Friday', 'data': [0, 0, 0, 0, 0, 0, 0, 4, 42, 90, 57, 38, 38, 28, 28, 47, 80, 80, 42, 0, 0, 0, 0, 0]}, {'name': 'Saturday', 'data': [0, 0, 0, 0, 0, 0, 0, 0, 0, 61, 100, 90, 47, 0, 0, 0, 0, 0, 0, 0, 0, 0, 0, 0]}, {'name': 'Sunday', 'data': [0, 0, 0, 0, 0, 0, 0, 0, 0, 0, 0, 0, 0, 0, 0, 0, 0, 0, 0, 0, 0, 0, 0, 0]}]",45.4565482,9.1609833,"[15, 15]",
98,ChIJTcRyf_vDhkcRLl-h2XFyuIE,Milano Fashion Library,"Via Alessandria, 8, 20144 Milano MI, Italy","['library', 'book_store', 'point_of_interest', 'store', 'establishment']",4.1,14.0,+39 02 8331 1211,,"[{'name': 'Monday', 'data': [0, 0, 0, 0, 0, 0, 0, 0, 0, 14, 38, 61, 66, 0, 57, 57, 57, 52, 0, 0, 0, 0, 0, 0]}, {'name': 'Tuesday', 'data': [0, 0, 0, 0, 0, 0, 0, 0, 0, 42, 80, 100, 90, 0, 90, 90, 80, 66, 0, 0, 0, 0, 0, 0]}, {'name': 'Wednesday', 'data': [0, 0, 0, 0, 0, 0, 0, 0, 0, 76, 47, 61, 71, 0, 57, 61, 66, 61, 0, 0, 0, 0, 0, 0]}, {'name': 'Thursday', 'data': [0, 0, 0, 0, 0, 0, 0, 0, 0, 57, 52, 57, 85, 0, 80, 85, 85, 52, 0, 0, 0, 0, 0, 0]}, {'name': 'Friday', 'data': [0, 0, 0, 0, 0, 0, 0, 0, 0, 19, 38, 38, 28, 0, 33, 47, 42, 19, 0, 0, 0, 0, 0, 0]}, {'name': 'Saturday', 'data': [0, 0, 0, 0, 0, 0, 0, 0, 0, 0, 0, 0, 0, 0, 0, 0, 0, 0, 0, 0, 0, 0, 0, 0]}, {'name': 'Sunday', 'data': [0, 0, 0, 0, 0, 0, 0, 0, 0, 0, 0, 0, 0, 0, 0, 0, 0, 0, 0, 0, 0, 0, 0, 0]}]",45.4542622,9.1718461,,
99,ChIJj7zIKjTBhkcRsYhjbxkVNjQ,Alastor,"Via Alessandro Volta, 15, 20121 Milano MI, Italy","['book_store', 'point_of_interest', 'store', 'establishment']",4.5,363.0,+39 02 6379 3621,,"[{'name': 'Monday', 'data': [0, 0, 0, 0, 0, 0, 0, 0, 0, 0, 6, 14, 20, 25, 33, 29, 23, 25, 22, 9, 0, 0, 0, 0]}, {'name': 'Tuesday', 'data': [0, 0, 0, 0, 0, 0, 0, 0, 0, 0, 20, 33, 24, 30, 31, 26, 25, 25, 20, 12, 0, 0, 0, 0]}, {'name': 'Wednesday', 'data': [0, 0, 0, 0, 0, 0, 0, 0, 0, 0, 5, 5, 15, 24, 25, 25, 25, 25, 19, 13, 0, 0, 0, 0]}, {'name': 'Thursday', 'data': [0, 0, 0, 0, 0, 0, 0, 0, 0, 0, 7, 15, 19, 19, 18, 25, 37, 46, 39, 23, 0, 0, 0, 0]}, {'name': 'Friday', 'data': [0, 0, 0, 0, 0, 0, 0, 0, 0, 0, 11, 19, 26, 30, 31, 33, 36, 36, 27, 15, 0, 0, 0, 0]}, {'name': 'Saturday', 'data': [0, 0, 0, 0, 0, 0, 0, 0, 0, 0, 30, 72, 69, 53, 68, 75, 83, 100, 75, 27, 0, 0, 0, 0]}, {'name': 'Sunday', 'data': [0, 0, 0, 0, 0, 0, 0, 0, 0, 0, 0, 0, 0, 0, 0, 0, 0, 0, 0, 0, 0, 0, 0, 0]}]",45.48003000000001,9.183213499999999,"[30, 30]",
100,ChIJs6BQZUrBhkcR2zi88W4fDXw,California Bakery,"Corso Garibaldi, 89, 20121 Milano MI, Italy","['bakery', 'cafe', 'restaurant', 'food', 'point_of_interest', 'store', 'establishment']",3.7,414.0,+39 02 3981 1750,,"[{'name': 'Monday', 'data': [0, 0, 0, 0, 0, 0, 0, 0, 2, 6, 10, 12, 20, 33, 32, 27, 29, 30, 26, 18, 11, 5, 2, 0]}, {'name': 'Tuesday', 'data': [0, 0, 0, 0, 0, 0, 0, 0, 2, 6, 13, 21, 27, 28, 25, 21, 18, 17, 16, 15, 13, 10, 6, 2]}, {'name': 'Wednesday', 'data': [0, 0, 0, 0, 0, 0, 0, 0, 4, 9, 13, 16, 18, 20, 21, 22, 21, 19, 17, 16, 14, 11, 8, 5]}, {'name': 'Thursday', 'data': [0, 0, 0, 0, 0, 0, 0, 0, 4, 10, 14, 18, 25, 32, 31, 29, 30, 32, 29, 24, 16, 10, 5, 2]}, {'name': 'Friday', 'data': [0, 0, 0, 0, 0, 0, 0, 0, 4, 9, 16, 25, 33, 37, 39, 38, 35, 27, 19, 14, 15, 15, 11, 5]}, {'name': 'Saturday', 'data': [0, 0, 0, 0, 0, 0, 0, 0, 0, 11, 22, 35, 47, 54, 58, 64, 74, 75, 60, 40, 31, 32, 26, 14]}, {'name': 'Sunday', 'data': [0, 0, 0, 0, 0, 0, 0, 0, 0, 11, 27, 47, 65, 72, 74, 82, 98, 100, 75, 41, 18, 8, 4, 2]}]",45.4767309,9.184025900000002,,"[{'name': 'Monday', 'data': [0, 0, 0, 0, 0, 0, 0, 0, 0, 0, 0, 0, 0, 0, 0, 0, 0, 0, 0, 0, 0, 0, 0, 0]}, {'name': 'Tuesday', 'data': [0, 0, 0, 0, 0, 0, 0, 0, 0, 0, 0, 0, 0, 0, 0, 0, 0, 0, 0, 0, 0, 0, 0, 0]}, {'name': 'Wednesday', 'data': [0, 0, 0, 0, 0, 0, 0, 0, 0, 0, 0, 0, 0, 0, 0, 0, 0, 0, 0, 0, 0, 0, 0, 0]}, {'name': 'Thursday', 'data': [0, 0, 0, 0, 0, 0, 0, 0, 0, 0, 0, 0, 0, 0, 0, 0, 0, 0, 0, 0, 0, 0, 0, 0]}, {'name': 'Friday', 'data': [0, 0, 0, 0, 0, 0, 0, 0, 0, 0, 0, 0, 0, 0, 0, 0, 0, 0, 0, 0, 0, 0, 0, 0]}, {'name': 'Saturday', 'data': [0, 0, 0, 0, 0, 0, 0, 0, 0, 0, 0, 0, 0, 0, 0, 0, 0, 15, 15, 15, 0, 0, 0, 0]}, {'name': 'Sunday', 'data': [0, 0, 0, 0, 0, 0, 0, 0, 0, 0, 0, 0, 0, 0, 0, 0, 15, 15, 15, 15, 0, 0, 0, 0]}]"
101,ChIJ278WkCTHhkcRe7bLnN_K90U,Ristorante Callistos,"Piazza Greco, 10, 20125 Milano MI, Italy","['cafe', 'bar', 'restaurant', 'food', 'point_of_interest', 'establishment']",3.1,170.0,+39 02 9415 0944,,"[{'name': 'Monday', 'data': [0, 0, 0, 0, 0, 0, 0, 0, 0, 0, 0, 0, 0, 0, 0, 0, 0, 0, 0, 0, 0, 0, 0, 0]}, {'name': 'Tuesday', 'data': [0, 0, 0, 0, 0, 0, 0, 0, 0, 0, 6, 3, 3, 10, 3, 0, 0, 0, 6, 23, 43, 53, 40, 20]}, {'name': 'Wednesday', 'data': [0, 0, 0, 0, 0, 0, 0, 0, 0, 0, 3, 10, 20, 20, 13, 0, 0, 0, 16, 40, 60, 53, 30, 10]}, {'name': 'Thursday', 'data': [0, 0, 0, 0, 0, 0, 0, 0, 0, 0, 3, 16, 36, 36, 20, 0, 0, 0, 6, 16, 26, 26, 23, 13]}, {'name': 'Friday', 'data': [0, 0, 0, 0, 0, 0, 0, 0, 0, 0, 0, 0, 0, 0, 0, 0, 0, 0, 0, 0, 0, 0, 0, 0]}, {'name': 'Saturday', 'data': [0, 0, 0, 0, 0, 0, 0, 0, 0, 0, 6, 13, 26, 33, 30, 0, 0, 0, 13, 40, 80, 100, 83, 43]}, {'name': 'Sunday', 'data': [0, 0, 0, 0, 0, 0, 0, 0, 0, 0, 3, 13, 23, 23, 13, 0, 0, 0, 20, 30, 40, 43, 26, 10]}]",45.5019041,9.2124541,,
102,ChIJc2klAC3qhkcRyRj8WqwuZLI,La Caffetteria Di Alberton Mario,"Via Reiss Romoli, 16, 20019 Settimo Milanese MI, Italy","['bar', 'cafe', 'food', 'point_of_interest', 'store', 'establishment']",1.5,2.0,+39 02 3350 1515,,,45.4762078,9.050750899999997,,
103,ChIJsTasELXGhkcR6-oRtweYeUY,Fioraio Bianchi Caffè,"Via Montebello, 7, 20121 Milano MI, Italy","['cafe', 'food', 'point_of_interest', 'establishment']",4.2,299.0,+39 02 2901 4390,,"[{'name': 'Monday', 'data': [0, 0, 0, 0, 0, 0, 0, 0, 15, 24, 32, 38, 39, 34, 26, 21, 21, 28, 42, 51, 48, 35, 19, 7]}, {'name': 'Tuesday', 'data': [0, 0, 0, 0, 0, 0, 0, 0, 20, 41, 49, 42, 49, 60, 40, 16, 16, 29, 44, 50, 44, 29, 15, 5]}, {'name': 'Wednesday', 'data': [0, 0, 0, 0, 0, 0, 0, 0, 22, 40, 49, 49, 48, 47, 42, 32, 30, 39, 54, 67, 65, 51, 31, 14]}, {'name': 'Thursday', 'data': [0, 0, 0, 0, 0, 0, 0, 0, 42, 62, 56, 45, 58, 78, 64, 35, 21, 31, 53, 71, 73, 59, 38, 18]}, {'name': 'Friday', 'data': [0, 0, 0, 0, 0, 0, 0, 0, 26, 38, 39, 38, 42, 46, 42, 32, 26, 31, 50, 72, 82, 74, 51, 26]}, {'name': 'Saturday', 'data': [0, 0, 0, 0, 0, 0, 0, 0, 9, 15, 23, 30, 36, 37, 34, 28, 27, 43, 78, 100, 84, 58, 42, 25]}, {'name': 'Sunday', 'data': [0, 0, 0, 0, 0, 0, 0, 0, 0, 0, 0, 0, 0, 0, 0, 0, 0, 0, 0, 0, 0, 0, 0, 0]}]",45.4752884,9.189127899999999,"[20, 90]",
104,ChIJWyJUparGhkcRAdLFbkhEjZ8,Yguana Cafè,"Via Papa Gregorio XIV, 16, 20123 Milano MI, Italy","['cafe', 'bar', 'food', 'point_of_interest', 'store', 'establishment']",3.9,1164.0,+39 02 8940 4195,,"[{'name': 'Monday', 'data': [1, 0, 0, 0, 0, 0, 0, 0, 0, 0, 0, 0, 1, 2, 1, 0, 0, 4, 10, 18, 23, 21, 14, 7]}, {'name': 'Tuesday', 'data': [2, 0, 0, 0, 0, 0, 0, 0, 0, 0, 0, 0, 1, 1, 1, 0, 0, 3, 10, 19, 24, 19, 11, 6]}, {'name': 'Wednesday', 'data': [4, 1, 0, 0, 0, 0, 0, 0, 0, 0, 0, 0, 1, 1, 1, 0, 0, 3, 9, 20, 30, 30, 20, 9]}, {'name': 'Thursday', 'data': [3, 0, 0, 0, 0, 0, 0, 0, 0, 0, 0, 0, 1, 1, 1, 0, 0, 4, 15, 33, 46, 42, 25, 10]}, {'name': 'Friday', 'data': [2, 0, 0, 0, 0, 0, 0, 0, 0, 0, 0, 0, 1, 1, 1, 0, 0, 3, 15, 45, 73, 72, 58, 46]}, {'name': 'Saturday', 'data': [29, 11, 0, 0, 0, 0, 0, 0, 0, 0, 0, 0, 2, 3, 2, 0, 0, 5, 26, 64, 87, 91, 100, 96]}, {'name': 'Sunday', 'data': [68, 34, 0, 0, 0, 0, 0, 0, 0, 0, 0, 0, 1, 2, 2, 0, 0, 7, 19, 38, 48, 40, 22, 8]}]",45.4589691,9.1825027,"[60, 150]",
105,ChIJGT1-2ovDhkcRBicgWp38FiE,Bowling dei fiori,"Via Privata Renzo e Lucia, 4, 20142 Milano MI, Italy","['bowling_alley', 'cafe', 'restaurant', 'food', 'point_of_interest', 'store', 'establishment']",3.8,1581.0,+39 02 843 5728,,"[{'name': 'Monday', 'data': [21, 0, 0, 0, 0, 0, 0, 0, 0, 0, 0, 0, 0, 0, 0, 3, 8, 14, 16, 16, 19, 30, 38, 34]}, {'name': 'Tuesday', 'data': [21, 0, 0, 0, 0, 0, 0, 0, 0, 0, 0, 0, 0, 0, 0, 4, 8, 10, 8, 6, 8, 15, 22, 18]}, {'name': 'Wednesday', 'data': [8, 0, 0, 0, 0, 0, 0, 0, 0, 0, 0, 0, 0, 0, 0, 6, 12, 17, 17, 13, 12, 18, 24, 21]}, {'name': 'Thursday', 'data': [13, 0, 0, 0, 0, 0, 0, 0, 0, 0, 0, 0, 0, 0, 0, 4, 10, 16, 18, 15, 12, 20, 36, 35]}, {'name': 'Friday', 'data': [16, 0, 0, 0, 0, 0, 0, 0, 0, 0, 0, 0, 0, 0, 0, 4, 8, 13, 15, 14, 15, 26, 47, 59]}, {'name': 'Saturday', 'data': [47, 23, 0, 0, 0, 0, 0, 0, 0, 0, 0, 0, 0, 0, 12, 24, 34, 38, 31, 23, 25, 46, 78, 100]}, {'name': 'Sunday', 'data': [90, 58, 27, 0, 0, 0, 0, 0, 0, 0, 0, 0, 0, 0, 20, 33, 43, 41, 29, 17, 14, 23, 35, 34]}]",45.43518599999999,9.170579,"[60, 150]",
106,ChIJ1bT_gRLEhkcReKqENzMKnbE,All Service S.r.l. Assistenza Autorizzata PHILIPS SAECO GAGGIA,"Via Carlo Bazzi, 45, 20141 Milano MI, Italy","['cafe', 'home_goods_store', 'food', 'point_of_interest', 'store', 'establishment']",4.3,184.0,+39 02 8905 9782,,"[{'name': 'Monday', 'data': [0, 0, 0, 0, 0, 0, 0, 0, 0, 0, 0, 0, 0, 0, 0, 0, 0, 0, 0, 0, 0, 0, 0, 0]}, {'name': 'Tuesday', 'data': [0, 0, 0, 0, 0, 0, 0, 0, 0, 13, 31, 36, 31, 0, 13, 36, 50, 45, 81, 0, 0, 0, 0, 0]}, {'name': 'Wednesday', 'data': [0, 0, 0, 0, 0, 0, 0, 0, 0, 0, 0, 0, 0, 0, 0, 0, 0, 0, 0, 0, 0, 0, 0, 0]}, {'name': 'Thursday', 'data': [0, 0, 0, 0, 0, 0, 0, 0, 0, 0, 0, 0, 0, 0, 0, 0, 0, 0, 0, 0, 0, 0, 0, 0]}, {'name': 'Friday', 'data': [0, 0, 0, 0, 0, 0, 0, 0, 0, 0, 0, 0, 0, 0, 0, 0, 0, 0, 0, 0, 0, 0, 0, 0]}, {'name': 'Saturday', 'data': [0, 0, 0, 0, 0, 0, 0, 0, 0, 0, 0, 0, 0, 0, 0, 0, 0, 0, 0, 0, 0, 0, 0, 0]}, {'name': 'Sunday', 'data': [0, 0, 0, 0, 0, 0, 0, 0, 0, 0, 0, 0, 0, 0, 0, 0, 0, 0, 0, 0, 0, 0, 0, 0]}]",45.44167999999999,9.188015699999998,"[15, 15]",
107,ChIJg9Bq36bGhkcR8pu2_9moqao,Cafeteria San Barnaba,"Via S. Barnaba, 18, 20122 Milano MI, Italy","['bar', 'cafe', 'food', 'point_of_interest', 'store', 'establishment']",4.0,42.0,+39 02 5990 1325,,,45.4595725,9.1984061,,
108,ChIJDz-JlPK3hkcR_Q-JOCMNDYU,Ristorante Samsara e Volta Rossa,"Via Increa, 70, 20861 Brugherio MB, Italy","['restaurant', 'cafe', 'bar', 'food', 'point_of_interest', 'establishment']",4.2,689.0,+39 039 878406,,"[{'name': 'Monday', 'data': [0, 0, 0, 0, 0, 0, 0, 0, 0, 0, 0, 0, 0, 0, 0, 0, 0, 0, 0, 0, 0, 0, 0, 0]}, {'name': 'Tuesday', 'data': [0, 0, 0, 0, 0, 0, 0, 0, 0, 0, 0, 0, 25, 28, 2, 0, 0, 0, 0, 14, 35, 51, 47, 28]}, {'name': 'Wednesday', 'data': [0, 0, 0, 0, 0, 0, 0, 0, 0, 0, 0, 0, 15, 22, 16, 0, 0, 0, 0, 9, 26, 41, 39, 21]}, {'name': 'Thursday', 'data': [0, 0, 0, 0, 0, 0, 0, 0, 0, 0, 0, 0, 22, 35, 25, 0, 0, 0, 0, 8, 26, 39, 29, 11]}, {'name': 'Friday', 'data': [0, 0, 0, 0, 0, 0, 0, 0, 0, 0, 0, 0, 21, 31, 25, 0, 0, 0, 0, 17, 48, 81, 85, 54]}, {'name': 'Saturday', 'data': [0, 0, 0, 0, 0, 0, 0, 0, 0, 0, 0, 0, 0, 0, 0, 0, 0, 0, 0, 28, 67, 100, 92, 52]}, {'name': 'Sunday', 'data': [0, 0, 0, 0, 0, 0, 0, 0, 0, 0, 0, 0, 17, 27, 30, 0, 0, 0, 0, 17, 41, 54, 40, 16]}]",45.5418883,9.312272,"[60, 150]","[{'name': 'Monday', 'data': [0, 0, 0, 0, 0, 0, 0, 0, 0, 0, 0, 0, 0, 0, 0, 0, 0, 0, 0, 0, 0, 0, 0, 0]}, {'name': 'Tuesday', 'data': [0, 0, 0, 0, 0, 0, 0, 0, 0, 0, 0, 0, 0, 0, 0, 0, 0, 0, 0, 15, 15, 15, 15, 15]}, {'name': 'Wednesday', 'data': [0, 0, 0, 0, 0, 0, 0, 0, 0, 0, 0, 0, 0, 0, 15, 0, 0, 0, 0, 0, 0, 15, 15, 0]}, {'name': 'Thursday', 'data': [0, 0, 0, 0, 0, 0, 0, 0, 0, 0, 0, 0, 0, 0, 0, 0, 0, 0, 0, 15, 15, 15, 15, 15]}, {'name': 'Friday', 'data': [0, 0, 0, 0, 0, 0, 0, 0, 0, 0, 0, 0, 0, 0, 0, 0, 0, 0, 0, 30, 15, 30, 15, 15]}, {'name': 'Saturday', 'data': [0, 0, 0, 0, 0, 0, 0, 0, 0, 0, 0, 0, 0, 0, 0, 0, 0, 0, 0, 45, 15, 30, 30, 15]}, {'name': 'Sunday', 'data': [0, 0, 0, 0, 0, 0, 0, 0, 0, 0, 0, 0, 0, 15, 15, 0, 0, 0, 0, 15, 0, 15, 15, 0]}]"
109,ChIJ9_HUprTGhkcRU8vGiIpU5sk,Jamaica,"Via Brera, 32, 20121 Milano MI, Italy","['restaurant', 'cafe', 'bar', 'food', 'point_of_interest', 'establishment']",3.4,473.0,+39 02 876723,,"[{'name': 'Monday', 'data': [6, 0, 0, 0, 0, 0, 0, 0, 0, 1, 2, 9, 23, 35, 32, 20, 12, 16, 27, 31, 23, 11, 4, 5]}, {'name': 'Tuesday', 'data': [6, 3, 0, 0, 0, 0, 0, 0, 0, 5, 13, 20, 24, 26, 22, 15, 11, 12, 18, 24, 27, 27, 23, 17]}, {'name': 'Wednesday', 'data': [11, 6, 2, 0, 0, 0, 0, 0, 0, 3, 6, 11, 16, 20, 21, 20, 17, 16, 18, 22, 23, 22, 26, 36]}, {'name': 'Thursday', 'data': [35, 19, 5, 0, 0, 0, 0, 0, 0, 1, 1, 9, 23, 32, 23, 10, 3, 7, 21, 40, 49, 40, 30, 44]}, {'name': 'Friday', 'data': [47, 18, 2, 0, 0, 0, 0, 0, 0, 2, 7, 13, 21, 27, 27, 23, 16, 13, 22, 40, 46, 40, 55, 86]}, {'name': 'Saturday', 'data': [74, 31, 6, 0, 0, 0, 0, 0, 0, 1, 2, 7, 17, 30, 39, 38, 32, 32, 47, 65, 67, 53, 58, 100]}, {'name': 'Sunday', 'data': [90, 31, 3, 0, 0, 0, 0, 0, 0, 0, 1, 6, 23, 46, 46, 35, 33, 38, 41, 38, 33, 26, 17, 11]}]",45.472593,9.187593,"[45, 90]",
110,ChIJDXpB_yzBhkcR0Z-CdwasJas,Nord Est Cafè,"Via Pietro Borsieri, 35, 20159 Milano MI, Italy","['cafe', 'bar', 'food', 'point_of_interest', 'establishment']",3.9,867.0,+39 02 6900 1910,,"[{'name': 'Monday', 'data': [0, 0, 0, 0, 0, 0, 0, 0, 16, 30, 29, 21, 21, 26, 26, 22, 17, 22, 48, 76, 70, 35, 0, 0]}, {'name': 'Tuesday', 'data': [0, 0, 0, 0, 0, 0, 0, 0, 16, 38, 24, 14, 18, 21, 19, 15, 12, 19, 35, 51, 48, 29, 0, 0]}, {'name': 'Wednesday', 'data': [0, 0, 0, 0, 0, 0, 0, 0, 4, 9, 14, 18, 19, 17, 13, 10, 13, 23, 43, 63, 71, 61, 41, 20]}, {'name': 'Thursday', 'data': [6, 0, 0, 0, 0, 0, 0, 0, 23, 35, 16, 13, 22, 29, 26, 21, 22, 34, 53, 68, 72, 63, 45, 25]}, {'name': 'Friday', 'data': [11, 0, 0, 0, 0, 0, 0, 0, 16, 34, 32, 23, 26, 29, 26, 20, 19, 30, 50, 72, 89, 91, 79, 58]}, {'name': 'Saturday', 'data': [35, 17, 0, 0, 0, 0, 0, 0, 6, 16, 30, 43, 50, 46, 35, 25, 23, 38, 66, 92, 100, 91, 89, 98]}, {'name': 'Sunday', 'data': [86, 47, 0, 0, 0, 0, 0, 0, 6, 30, 57, 56, 46, 47, 46, 41, 42, 55, 72, 82, 76, 56, 33, 14]}]",45.489217,9.188832,,
111,ChIJ7z25tajGhkcRWNrqqYyMAFI,Aperitivo Milano,"Via Edmondo de Amicis, 10, 20100 Milano MI, Italy","['night_club', 'cafe', 'bar', 'restaurant', 'food', 'point_of_interest', 'store', 'establishment']",4.2,33.0,+39 393 099 9000,,,45.45786349999999,9.1799956,,
112,ChIJ3fKEnDXBhkcRlFV34BVFmFY,Princi,"Largo la Foppa, 2, 20121 Milano MI, Italy","['bakery', 'cafe', 'bar', 'food', 'point_of_interest', 'store', 'establishment']",3.9,1489.0,+39 02 659 9013,,"[{'name': 'Monday', 'data': [0, 0, 0, 0, 0, 0, 0, 18, 34, 15, 16, 25, 33, 37, 35, 29, 22, 21, 34, 44, 32, 11, 0, 0]}, {'name': 'Tuesday', 'data': [0, 0, 0, 0, 0, 0, 0, 9, 35, 12, 18, 26, 32, 34, 31, 26, 22, 25, 33, 35, 27, 15, 0, 0]}, {'name': 'Wednesday', 'data': [0, 0, 0, 0, 0, 0, 0, 10, 22, 24, 21, 28, 40, 48, 46, 38, 30, 33, 45, 51, 38, 17, 0, 0]}, {'name': 'Thursday', 'data': [0, 0, 0, 0, 0, 0, 0, 7, 23, 30, 25, 27, 34, 36, 35, 29, 27, 36, 52, 59, 45, 21, 0, 0]}, {'name': 'Friday', 'data': [0, 0, 0, 0, 0, 0, 0, 6, 12, 19, 27, 35, 41, 43, 42, 37, 30, 28, 43, 67, 53, 19, 0, 0]}, {'name': 'Saturday', 'data': [0, 0, 0, 0, 0, 0, 0, 0, 10, 22, 31, 36, 40, 47, 53, 54, 60, 75, 91, 88, 61, 30, 0, 0]}, {'name': 'Sunday', 'data': [0, 0, 0, 0, 0, 0, 0, 0, 7, 25, 43, 46, 46, 55, 62, 58, 61, 83, 100, 81, 42, 13, 0, 0]}]",45.4778574,9.184845200000002,"[20, 60]",
113,ChIJ_8oKaK7GhkcRnrGHAR4a0W8,Cioccolatitaliani,"Via S. Raffaele, 6, 20121 Milano MI, Italy","['cafe', 'food', 'point_of_interest', 'store', 'establishment']",4.1,1597.0,+39 02 8909 3820,,"[{'name': 'Monday', 'data': [0, 0, 0, 0, 0, 0, 0, 0, 9, 21, 18, 12, 17, 26, 34, 38, 39, 36, 31, 23, 15, 8, 3, 0]}, {'name': 'Tuesday', 'data': [0, 0, 0, 0, 0, 0, 0, 2, 14, 24, 18, 10, 17, 25, 25, 20, 19, 20, 20, 18, 14, 9, 5, 0]}, {'name': 'Wednesday', 'data': [0, 0, 0, 0, 0, 0, 0, 2, 10, 16, 12, 9, 17, 32, 38, 34, 31, 32, 32, 28, 20, 13, 6, 0]}, {'name': 'Thursday', 'data': [0, 0, 0, 0, 0, 0, 0, 2, 17, 25, 12, 6, 16, 31, 36, 31, 26, 27, 28, 26, 21, 15, 9, 0]}, {'name': 'Friday', 'data': [0, 0, 0, 0, 0, 0, 0, 3, 6, 11, 17, 23, 29, 34, 37, 37, 34, 29, 23, 18, 20, 26, 20, 0]}, {'name': 'Saturday', 'data': [0, 0, 0, 0, 0, 0, 0, 0, 1, 5, 10, 14, 16, 21, 33, 53, 69, 67, 50, 32, 32, 46, 44, 22]}, {'name': 'Sunday', 'data': [0, 0, 0, 0, 0, 0, 0, 0, 0, 4, 11, 23, 40, 60, 81, 95, 100, 92, 75, 54, 35, 19, 9, 0]}]",45.4657546,9.1913315,"[20, 45]",
114,ChIJ9aOD_sDGhkcRNP8QxUzJI9A,Pasticceria San Gregorio S.a.s.,"Via S. Gregorio, 1, 20124 Milano MI, Italy","['bakery', 'cafe', 'bar', 'food', 'point_of_interest', 'store', 'establishment']",3.9,384.0,+39 02 2952 4182,,"[{'name': 'Monday', 'data': [0, 0, 0, 0, 0, 6, 11, 16, 20, 24, 24, 23, 20, 19, 21, 28, 36, 37, 28, 15, 6, 0, 0, 0]}, {'name': 'Tuesday', 'data': [0, 0, 0, 0, 0, 4, 11, 19, 25, 26, 23, 22, 24, 26, 23, 20, 24, 34, 34, 20, 6, 0, 0, 0]}, {'name': 'Wednesday', 'data': [0, 0, 0, 0, 0, 4, 12, 19, 22, 25, 29, 31, 26, 22, 23, 28, 33, 32, 26, 17, 9, 0, 0, 0]}, {'name': 'Thursday', 'data': [0, 0, 0, 0, 0, 8, 17, 21, 24, 29, 34, 33, 28, 23, 24, 30, 35, 35, 28, 18, 8, 0, 0, 0]}, {'name': 'Friday', 'data': [0, 0, 0, 0, 0, 6, 13, 22, 28, 31, 29, 26, 24, 26, 27, 28, 32, 35, 32, 21, 9, 0, 0, 0]}, {'name': 'Saturday', 'data': [0, 0, 0, 0, 0, 5, 15, 28, 43, 52, 52, 43, 33, 32, 45, 66, 82, 79, 59, 33, 13, 0, 0, 0]}, {'name': 'Sunday', 'data': [0, 0, 0, 0, 0, 9, 22, 23, 26, 42, 58, 62, 51, 40, 47, 75, 100, 96, 64, 29, 8, 0, 0, 0]}]",45.4777433,9.207859799999998,"[15, 45]",
115,ChIJD1UbDF_BhkcRNwXcjYilP84,Dixieland Café,"Piazzale Aquileia, 12, 20144 Milano MI, Italy","['cafe', 'bar', 'restaurant', 'food', 'point_of_interest', 'store', 'establishment']",3.9,166.0,+39 02 436915,,,45.46088400000001,9.162951999999999,,
116,ChIJL5cNId3GhkcRpSIAVnhtypA,Art Factory Cafè,"Viale Andrea Doria, 17, 20124 Milano MI, Italy","['restaurant', 'cafe', 'bar', 'food', 'point_of_interest', 'establishment']",3.6,450.0,+39 02 669 4578,,,45.4856247,9.2105049,,
117,ChIJPUNBG6bGhkcRCuJXcAYN1w0,Arnold Coffee,"Via Festa del Perdono, 1, 20123 Milano MI, Italy","['cafe', 'bar', 'food', 'point_of_interest', 'store', 'establishment']",3.7,605.0,,,,45.4615729,9.194993400000001,,
118,ChIJeZHnxlvBhkcR7djE8EqVI6s,Pasticceria San Carlo.,"Via Matteo Bandello, 1, 20123 Milano MI, Italy","['cafe', 'food', 'point_of_interest', 'establishment']",4.1,394.0,+39 02 481 2227,,"[{'name': 'Monday', 'data': [0, 0, 0, 0, 0, 0, 14, 31, 49, 64, 68, 61, 46, 31, 23, 25, 33, 42, 44, 40, 28, 0, 0, 0]}, {'name': 'Tuesday', 'data': [0, 0, 0, 0, 0, 0, 25, 42, 56, 62, 60, 52, 40, 31, 24, 24, 30, 39, 44, 42, 31, 0, 0, 0]}, {'name': 'Wednesday', 'data': [0, 0, 0, 0, 0, 0, 23, 41, 59, 73, 75, 66, 50, 34, 28, 32, 44, 53, 50, 34, 15, 0, 0, 0]}, {'name': 'Thursday', 'data': [0, 0, 0, 0, 0, 0, 19, 32, 47, 58, 64, 61, 56, 47, 38, 32, 37, 56, 74, 66, 37, 0, 0, 0]}, {'name': 'Friday', 'data': [0, 0, 0, 0, 0, 0, 28, 41, 53, 62, 66, 61, 51, 40, 32, 32, 42, 56, 59, 48, 29, 0, 0, 0]}, {'name': 'Saturday', 'data': [0, 0, 0, 0, 0, 0, 14, 33, 55, 74, 82, 77, 62, 49, 42, 42, 48, 52, 52, 46, 34, 0, 0, 0]}, {'name': 'Sunday', 'data': [0, 0, 0, 0, 0, 0, 1, 12, 37, 70, 97, 100, 75, 44, 28, 33, 56, 73, 67, 42, 17, 0, 0, 0]}]",45.4654,9.168500000000002,"[15, 45]",
119,ChIJjcBseK7GhkcRQ-PznMmWVUA,Ristorante Savini,"Via Ugo Foscolo, 5, 20121 Milano MI, Italy","['cafe', 'restaurant', 'food', 'point_of_interest', 'store', 'establishment']",4.0,1411.0,+39 02 7200 3433,,"[{'name': 'Monday', 'data': [0, 0, 0, 0, 0, 0, 0, 0, 20, 41, 65, 81, 85, 83, 78, 73, 67, 62, 0, 0, 0, 0, 0, 0]}, {'name': 'Tuesday', 'data': [0, 0, 0, 0, 0, 0, 0, 0, 21, 40, 59, 72, 77, 76, 71, 65, 59, 57, 0, 0, 0, 0, 0, 0]}, {'name': 'Wednesday', 'data': [0, 0, 0, 0, 0, 0, 0, 0, 12, 38, 64, 68, 69, 85, 87, 70, 57, 54, 0, 0, 0, 0, 0, 0]}, {'name': 'Thursday', 'data': [0, 0, 0, 0, 0, 0, 0, 0, 24, 38, 55, 70, 80, 83, 78, 67, 55, 46, 0, 0, 0, 0, 0, 0]}, {'name': 'Friday', 'data': [0, 0, 0, 0, 0, 0, 0, 0, 24, 38, 54, 68, 79, 82, 75, 61, 48, 45, 0, 0, 0, 0, 0, 0]}, {'name': 'Saturday', 'data': [0, 0, 0, 0, 0, 0, 0, 0, 9, 17, 27, 38, 47, 59, 74, 91, 100, 94, 0, 0, 0, 0, 0, 0]}, {'name': 'Sunday', 'data': [0, 0, 0, 0, 0, 0, 0, 0, 19, 31, 43, 53, 62, 74, 86, 94, 92, 79, 0, 0, 0, 0, 0, 0]}]",45.465728,9.1905653,"[10, 60]",
120,ChIJn89Nb7LGhkcR-b9AyvG4vzs,San Giuseppe,"Via Verdi, 20121 Milano MI, Italy","['tourist_attraction', 'church', 'place_of_worship', 'point_of_interest', 'establishment']",4.4,231.0,+39 02 805 2320,,,45.46851729999999,9.1890833,,
121,ChIJoTZGw67GhkcREy4aECdOf6s,Duomo di Milano,"Piazza del Duomo, 20122 Milano MI, Italy","['tourist_attraction', 'church', 'place_of_worship', 'point_of_interest', 'establishment']",4.8,93522.0,+39 02 7202 3375,7.0,"[{'name': 'Monday', 'data': [0, 0, 0, 0, 0, 0, 0, 0, 0, 11, 25, 39, 44, 42, 40, 42, 42, 37, 27, 0, 0, 0, 0, 0]}, {'name': 'Tuesday', 'data': [0, 0, 0, 0, 0, 0, 0, 0, 0, 12, 21, 30, 34, 33, 31, 31, 31, 28, 21, 0, 0, 0, 0, 0]}, {'name': 'Wednesday', 'data': [0, 0, 0, 0, 0, 0, 0, 0, 0, 10, 21, 31, 36, 35, 34, 38, 40, 38, 31, 0, 0, 0, 0, 0]}, {'name': 'Thursday', 'data': [0, 0, 0, 0, 0, 0, 0, 0, 0, 12, 25, 38, 43, 42, 42, 47, 51, 45, 32, 0, 0, 0, 0, 0]}, {'name': 'Friday', 'data': [0, 0, 0, 0, 0, 0, 0, 0, 0, 14, 27, 41, 48, 48, 47, 51, 55, 50, 36, 0, 0, 0, 0, 0]}, {'name': 'Saturday', 'data': [0, 0, 0, 0, 0, 0, 0, 0, 0, 19, 42, 65, 76, 72, 74, 88, 100, 89, 61, 0, 0, 0, 0, 0]}, {'name': 'Sunday', 'data': [0, 0, 0, 0, 0, 0, 0, 0, 0, 20, 48, 75, 83, 75, 76, 87, 94, 84, 59, 0, 0, 0, 0, 0]}]",45.4640976,9.1919265,,
122,ChIJgxy_RFrBhkcRWVrH08TNW-0,Santa Maria delle Grazie,"Piazza di Santa Maria delle Grazie, 20123 Milano MI, Italy","['church', 'tourist_attraction', 'place_of_worship', 'point_of_interest', 'establishment']",4.6,10617.0,+39 02 467 6111,,,45.465963,9.170962099999999,,
123,ChIJt1PB9qvGhkcRwIetkCDW1qM,Santa Maria presso San Satiro,"20123 Milan, Metropolitan City of Milan, Italy","['tourist_attraction', 'church', 'place_of_worship', 'point_of_interest', 'establishment']",4.7,2919.0,+39 02 874683,,"[{'name': 'Monday', 'data': [0, 0, 0, 0, 0, 0, 0, 0, 0, 20, 16, 20, 30, 35, 34, 34, 34, 29, 0, 0, 0, 0, 0, 0]}, {'name': 'Tuesday', 'data': [0, 0, 0, 0, 0, 0, 0, 0, 0, 15, 22, 32, 40, 44, 42, 35, 26, 18, 0, 0, 0, 0, 0, 0]}, {'name': 'Wednesday', 'data': [0, 0, 0, 0, 0, 0, 0, 0, 0, 16, 19, 27, 35, 41, 42, 39, 32, 23, 0, 0, 0, 0, 0, 0]}, {'name': 'Thursday', 'data': [0, 0, 0, 0, 0, 0, 0, 0, 0, 22, 24, 33, 50, 58, 51, 40, 33, 27, 0, 0, 0, 0, 0, 0]}, {'name': 'Friday', 'data': [0, 0, 0, 0, 0, 0, 0, 0, 0, 18, 24, 38, 57, 63, 55, 48, 43, 34, 0, 0, 0, 0, 0, 0]}, {'name': 'Saturday', 'data': [0, 0, 0, 0, 0, 0, 0, 0, 0, 13, 26, 41, 50, 53, 64, 85, 97, 79, 0, 0, 0, 0, 0, 0]}, {'name': 'Sunday', 'data': [0, 0, 0, 0, 0, 0, 0, 0, 0, 0, 0, 0, 0, 0, 61, 92, 100, 76, 0, 0, 0, 0, 0, 0]}]",45.4627778,9.1877778,,
124,ChIJCfxX3lbBhkcRY78V8stFXio,Basilica di Sant'Ambrogio,"Piazza Sant'Ambrogio, 15, 20123 Milano MI, Italy","['tourist_attraction', 'church', 'place_of_worship', 'point_of_interest', 'establishment']",4.7,8483.0,+39 02 8645 0895,,,45.46232920000001,9.175612000000001,,
125,ChIJpSr6-P_DhkcRFjrdAKON44Q,Basilica San Lorenzo Maggiore,"Corso di Porta Ticinese, 35, 20123 Milano MI, Italy","['tourist_attraction', 'church', 'place_of_worship', 'point_of_interest', 'establishment']",4.6,839.0,+39 02 8940 4129,,,45.4582128,9.1820776,,
126,ChIJwXREBDHBhkcR2pUFCgmgM3k,Basilica Santuario Sant'Antonio di Padova,"Via Carlo Farini, 10, 20154 Milano MI, Italy","['tourist_attraction', 'church', 'place_of_worship', 'point_of_interest', 'establishment']",4.7,234.0,+39 02 655 1145,,,45.4849334,9.182101699999999,,
127,ChIJYYp13h6NhkcRDXbwYb-DrXA,Church of San Bernardino,"Cascina S. Bernardino, 1, 20025 Legnano MI, Italy","['church', 'tourist_attraction', 'place_of_worship', 'point_of_interest', 'establishment']",4.1,15.0,,,,45.57882790000001,8.8989662,,
128,ChIJv8q2DMLDhkcRaFljenn-0t4,San Cristoforo sul Naviglio,"Via S. Cristoforo, 3, 20144 Milano MI, Italy","['tourist_attraction', 'church', 'place_of_worship', 'point_of_interest', 'establishment']",4.6,292.0,+39 02 4895 1413,,"[{'name': 'Monday', 'data': [0, 0, 0, 0, 0, 0, 0, 2, 5, 8, 14, 18, 14, 12, 12, 13, 12, 10, 8, 0, 0, 0, 0, 0]}, {'name': 'Tuesday', 'data': [0, 0, 0, 0, 0, 0, 0, 2, 4, 7, 9, 9, 7, 6, 9, 15, 19, 17, 11, 0, 0, 0, 0, 0]}, {'name': 'Wednesday', 'data': [0, 0, 0, 0, 0, 0, 0, 1, 5, 10, 15, 17, 14, 10, 9, 15, 21, 19, 10, 0, 0, 0, 0, 0]}, {'name': 'Thursday', 'data': [0, 0, 0, 0, 0, 0, 0, 1, 5, 9, 12, 12, 10, 10, 13, 17, 20, 20, 17, 0, 0, 0, 0, 0]}, {'name': 'Friday', 'data': [0, 0, 0, 0, 0, 0, 0, 1, 5, 10, 14, 15, 13, 12, 14, 19, 22, 19, 13, 0, 0, 0, 0, 0]}, {'name': 'Saturday', 'data': [0, 0, 0, 0, 0, 0, 0, 0, 4, 14, 33, 48, 43, 27, 19, 27, 42, 48, 39, 0, 0, 0, 0, 0]}, {'name': 'Sunday', 'data': [0, 0, 0, 0, 0, 0, 0, 0, 2, 16, 63, 100, 62, 25, 26, 44, 61, 66, 54, 0, 0, 0, 0, 0]}]",45.4477319,9.1547713,,
129,ChIJGZvSZKbGhkcRgY3Fu2xpR-8,Tempio Valdese,"Via Francesco Sforza, 12 a, 20122 Milano MI, Italy","['church', 'place_of_worship', 'point_of_interest', 'establishment']",4.3,47.0,+39 02 7602 1069,,,45.46148470000001,9.1969511,,
130,ChIJ7yy6eaDFhkcRSzJkw_utHqw,Chiaravalle Abbey,"Via Sant'Arialdo, 102, 20139 Milano MI, Italy","['tourist_attraction', 'church', 'place_of_worship', 'point_of_interest', 'establishment']",4.6,1722.0,+39 02 5740 3404,,"[{'name': 'Monday', 'data': [0, 0, 0, 0, 0, 0, 0, 0, 0, 0, 0, 0, 0, 0, 0, 0, 0, 0, 0, 0, 0, 0, 0, 0]}, {'name': 'Tuesday', 'data': [0, 0, 0, 0, 0, 0, 0, 0, 0, 8, 11, 10, 0, 0, 0, 10, 15, 10, 0, 0, 0, 0, 0, 0]}, {'name': 'Wednesday', 'data': [0, 0, 0, 0, 0, 0, 0, 0, 0, 6, 13, 13, 0, 0, 0, 12, 17, 14, 0, 0, 0, 0, 0, 0]}, {'name': 'Thursday', 'data': [0, 0, 0, 0, 0, 0, 0, 0, 0, 6, 10, 10, 0, 0, 0, 17, 19, 10, 0, 0, 0, 0, 0, 0]}, {'name': 'Friday', 'data': [0, 0, 0, 0, 0, 0, 0, 0, 0, 4, 12, 13, 0, 0, 0, 20, 21, 10, 0, 0, 0, 0, 0, 0]}, {'name': 'Saturday', 'data': [0, 0, 0, 0, 0, 0, 0, 0, 0, 10, 25, 30, 0, 0, 0, 38, 53, 47, 0, 0, 0, 0, 0, 0]}, {'name': 'Sunday', 'data': [0, 0, 0, 0, 0, 0, 0, 0, 0, 16, 41, 56, 0, 0, 0, 75, 100, 64, 0, 0, 0, 0, 0, 0]}]",45.4158462,9.236095,,
131,ChIJIdmHU5C5hkcRli0X4XEgY9U,Convento S. Maria delle Grazie,"Via Montecassino, 18, 20900 Monza MB, Italy","['church', 'tourist_attraction', 'place_of_worship', 'point_of_interest', 'establishment']",4.6,430.0,+39 039 322890,,,45.5912939,9.285006499999998,,
132,ChIJZRlLc6K5hkcRBrJIM1td7VA,Monza Cathedral,"Piazza Duomo, 20900 Monza MB, Italy","['tourist_attraction', 'church', 'place_of_worship', 'point_of_interest', 'establishment']",4.6,2827.0,+39 039 389420,3.0,"[{'name': 'Monday', 'data': [0, 0, 0, 0, 0, 0, 0, 0, 3, 14, 27, 27, 0, 0, 0, 17, 25, 24, 16, 0, 0, 0, 0, 0]}, {'name': 'Tuesday', 'data': [0, 0, 0, 0, 0, 0, 0, 2, 7, 14, 19, 16, 0, 0, 0, 11, 19, 24, 21, 0, 0, 0, 0, 0]}, {'name': 'Wednesday', 'data': [0, 0, 0, 0, 0, 0, 0, 1, 6, 17, 28, 28, 0, 0, 0, 10, 19, 29, 26, 0, 0, 0, 0, 0]}, {'name': 'Thursday', 'data': [0, 0, 0, 0, 0, 0, 0, 0, 3, 11, 21, 26, 0, 0, 0, 16, 24, 23, 14, 0, 0, 0, 0, 0]}, {'name': 'Friday', 'data': [0, 0, 0, 0, 0, 0, 0, 2, 6, 12, 16, 15, 0, 0, 0, 18, 22, 18, 10, 0, 0, 0, 0, 0]}, {'name': 'Saturday', 'data': [0, 0, 0, 0, 0, 0, 0, 1, 6, 15, 25, 27, 0, 0, 0, 39, 73, 87, 65, 0, 0, 0, 0, 0]}, {'name': 'Sunday', 'data': [0, 0, 0, 0, 0, 0, 0, 2, 13, 38, 66, 76, 0, 0, 0, 62, 100, 97, 56, 0, 0, 0, 0, 0]}]",45.5835552,9.2754637,,
133,ChIJmc8Gtv3DhkcRdOCH6YFVWCg,San Vincenzo in Prato,"Via Daniele Crespi, 6, 20123 Milano MI, Italy","['tourist_attraction', 'church', 'place_of_worship', 'point_of_interest', 'establishment']",4.5,120.0,+39 02 837 3107,,,45.45770159999999,9.1739699,,
134,ChIJZbjxOpm5hkcRVXKJeNJCHn0,Chiesa e Convento di Santa Maria al Carrobiolo,"Piazza Carrobiolo, 8, 20900 Monza MB, Italy","['library', 'church', 'place_of_worship', 'point_of_interest', 'establishment']",4.7,19.0,+39 039 323717,,,45.5870994,9.2773023,,
135,ChIJOff4bvy7hkcRHdWocKUMiSc,St. Charles Church,"Via S. Carlo, 20035 Lissone MI, Italy","['church', 'place_of_worship', 'point_of_interest', 'establishment']",4.3,7.0,,,,45.60989729999999,9.239194099999999,,
136,ChIJaXILpeS7hkcRCrXhhVy7dsA,Chiesa Prepositurale dei S. S. Pietro e Paolo,"Piazza Giovanni-XXIII, 7, 20851 Lissone MI, Italy","['church', 'place_of_worship', 'point_of_interest', 'establishment']",4.6,122.0,+39 039 480214,,,45.6113548,9.2380914,,
137,ChIJpzHt3nbEhkcRRd3B7RZPILM,Chiesa Cattolica Parrocchiale di Santa Maria Annunciata in Chiesa Rossa,"Via Neera, 24, 20141 Milano MI, Italy","['tourist_attraction', 'church', 'place_of_worship', 'point_of_interest', 'establishment']",4.5,206.0,+39 02 8950 0817,,,45.43288920000001,9.1780489,,
138,ChIJ_wHBBALEhkcRAwEJ-7YSnPE,Basilica di Sant'Eufemia,"Piazza Sant'Eufemia, 2, 20122 Milano MI, Italy","['tourist_attraction', 'church', 'place_of_worship', 'point_of_interest', 'establishment']",4.4,268.0,+39 02 8645 1154,,,45.4574892,9.1883871,,
139,ChIJEe2OFaPGhkcRM2V9Ep6pL0E,Santa Maria della Passione,"Via Vincenzo Bellini, 2, 20122 Milano MI, Italy","['tourist_attraction', 'church', 'place_of_worship', 'point_of_interest', 'establishment']",4.6,270.0,+39 02 7602 1370,,,45.46520059999999,9.2032717,,
140,ChIJz45UBR_HhkcR-8ELj72NhBg,Chiesa Cristiana Dello Spirito Santo | Milano | IURD,"Viale Monza, 101, (Stz. Metro Rossa - Rovereto), 20125 Milano MI, Italy","['church', 'place_of_worship', 'point_of_interest', 'establishment']",4.5,17.0,+39 02 4549 4940,,,45.4964229,9.219630100000002,,
141,ChIJf1e4TwzChkcRgifXuyX_1s4,Parrocchia Sant'Ambrogio V. e Dott.,"Via Rimembranze, 1, 20090 Trezzano sul Naviglio MI, Italy","['church', 'place_of_worship', 'point_of_interest', 'establishment']",4.5,88.0,+39 02 445 1105,,,45.4184865,9.0685497,,
142,ChIJMxsIu8y4hkcRpk4oM9LQF2Q,Parrocchia Sant'Ambrogio,"Piazza Antonio Gramsci, 1, 20092 Cinisello Balsamo MI, Italy","['church', 'place_of_worship', 'point_of_interest', 'establishment']",4.3,187.0,+39 02 6604 6032,,,45.5562201,9.2146901,,
143,ChIJWdinYyTChkcRWyvQPPfosDw,Cooperativa Sociale Comunita' Del Giambellino,"Via Zurigo, 65, 20147 Milano MI, Italy","['church', 'place_of_worship', 'point_of_interest', 'establishment']",,,+39 02 419524,,,45.4573846,9.1204168,,
144,ChIJTSlRLUmUhkcRKI_UAhWWE14,Parrocchia S.S. Alessandro e Martino,"Via Cesare Battisti, 1, 20020 Cesate MI, Italy","['church', 'place_of_worship', 'point_of_interest', 'establishment']",4.3,65.0,+39 02 9906 8905,,,45.595305,9.0785421,,
145,ChIJmbmKJRHBhkcRp9Ki-RKQczs,Parish of St. Joseph of Peace,"Via Fratelli Salvioni, 10, 20154 Milano MI, Italy","['church', 'place_of_worship', 'point_of_interest', 'establishment']",4.6,109.0,+39 02 314101,,"[{'name': 'Monday', 'data': [0, 0, 0, 0, 0, 0, 0, 1, 4, 5, 5, 4, 4, 2, 0, 0, 2, 5, 9, 0, 0, 0, 0, 0]}, {'name': 'Tuesday', 'data': [0, 0, 0, 0, 0, 0, 0, 3, 10, 14, 13, 7, 1, 1, 1, 6, 12, 18, 22, 0, 0, 0, 0, 0]}, {'name': 'Wednesday', 'data': [0, 0, 0, 0, 0, 0, 0, 1, 2, 6, 9, 8, 5, 1, 0, 1, 6, 14, 22, 0, 0, 0, 0, 0]}, {'name': 'Thursday', 'data': [0, 0, 0, 0, 0, 0, 0, 3, 8, 8, 4, 1, 0, 1, 1, 1, 2, 7, 11, 0, 0, 0, 0, 0]}, {'name': 'Friday', 'data': [0, 0, 0, 0, 0, 0, 0, 1, 12, 6, 1, 1, 0, 0, 1, 1, 1, 1, 4, 11, 21, 28, 26, 0]}, {'name': 'Saturday', 'data': [0, 0, 0, 0, 0, 0, 0, 0, 15, 24, 21, 9, 1, 0, 6, 15, 26, 37, 43, 40, 31, 19, 8, 0]}, {'name': 'Sunday', 'data': [0, 0, 0, 0, 0, 0, 0, 0, 16, 56, 100, 97, 52, 16, 6, 8, 11, 10, 48, 35, 0, 0, 0, 0]}]",45.4859115,9.161032999999998,,
146,ChIJiWFJgJXFhkcRH0TGXOvhrFk,Sacra Famiglia In Rogoredo Parish,"Via Monte Peralba, 15, 20138 Milano MI, Italy","['church', 'place_of_worship', 'point_of_interest', 'establishment']",4.4,91.0,+39 02 514135,,"[{'name': 'Monday', 'data': [0, 0, 0, 0, 0, 0, 0, 0, 2, 5, 7, 7, 0, 0, 0, 0, 11, 21, 16, 0, 0, 0, 0, 0]}, {'name': 'Tuesday', 'data': [0, 0, 0, 0, 0, 0, 0, 1, 5, 9, 10, 8, 0, 0, 0, 0, 17, 20, 15, 0, 0, 0, 0, 0]}, {'name': 'Wednesday', 'data': [0, 0, 0, 0, 0, 0, 0, 0, 3, 5, 5, 4, 0, 0, 0, 0, 27, 27, 15, 0, 0, 0, 0, 0]}, {'name': 'Thursday', 'data': [0, 0, 0, 0, 0, 0, 0, 1, 1, 4, 7, 6, 0, 0, 0, 0, 8, 7, 3, 0, 0, 0, 0, 0]}, {'name': 'Friday', 'data': [0, 0, 0, 0, 0, 0, 0, 3, 5, 6, 4, 2, 0, 0, 0, 0, 24, 28, 19, 0, 0, 0, 0, 0]}, {'name': 'Saturday', 'data': [0, 0, 0, 0, 0, 0, 0, 1, 2, 9, 15, 14, 0, 0, 0, 10, 19, 24, 20, 0, 0, 0, 0, 0]}, {'name': 'Sunday', 'data': [0, 0, 0, 0, 0, 0, 0, 1, 0, 14, 71, 100, 0, 0, 0, 14, 24, 26, 17, 0, 0, 0, 0, 0]}]",45.43236369999999,9.243724799999999,,
147,ChIJj6D6xrrGhkcR80kY4AWsXZg,Seminario Arcivescovile di Milano,"Corso Venezia, 11, 20121 Milano MI, Italy","['tourist_attraction', 'church', 'place_of_worship', 'point_of_interest', 'establishment']",4.1,16.0,+39 02 783941,,,45.4682705,9.197656400000001,,
148,ChIJk6JilczFhkcR3uRtRTY7jsE,Parrocchia Medaglia Miracolosa Or,"Viale Lucania, 16, 20139 Milano MI, Italy","['church', 'place_of_worship', 'point_of_interest', 'establishment']",3.0,7.0,+39 02 5741 0299,,,45.44198369999999,9.2245289,,
149,ChIJ47IFNzjBhkcRCQZvpOpnqRU,chiesa della Santissima Trinità,"Via Giuseppe Giusti, 25, 20154 Milano MI, Italy","['church', 'place_of_worship', 'point_of_interest', 'establishment']",4.3,62.0,+39 02 331 1831,,,45.4798417,9.1759475,,
150,ChIJN-3708TDhkcRRD54rjQUjYU,Chiesa Parrocchiale di San Vito al Giambellino,"Via Tito Vignoli, 35, 20146 Milano MI, Italy","['church', 'place_of_worship', 'point_of_interest', 'establishment']",4.1,87.0,+39 02 474935,,,45.45118739999999,9.1474389,,
151,ChIJt-lt0KvGhkcRJFej_rYRySQ,Provincia Lombarda Chierici Regolari Di S.Paolo Detti Barnabiti,"Piazza Giuseppe Missori, 4, 20122 Milano MI, Italy","['church', 'place_of_worship', 'point_of_interest', 'establishment']",,,+39 02 722171,,,45.4610092,9.1878399,,
152,ChIJT28u2CzChkcRjyHi27CZnqQ,Parrocchia Santi Patroni D'Italia,"Via Arzaga, 23, 20146 Milano MI, Italy","['church', 'place_of_worship', 'point_of_interest', 'establishment']",4.1,61.0,+39 02 4830 2884,,,45.4555263,9.133585499999999,,
153,ChIJa8yySNGShkcRPpoo5jWNjQ4,Oratorio Femminile Sacra Famiglia,"Via Meda, 1, 20014 Nerviano MI, Italy","['church', 'place_of_worship', 'point_of_interest', 'establishment']",3.9,8.0,+39 0331 177019,,,45.556814,8.974230900000002,,
154,ChIJ9WNO4LXAhkcR94lRqPv2m_c,Parrocchia San Martino in Niguarda,"Piazza Belloveso, 5, 20162 Milano MI, Italy","['church', 'place_of_worship', 'point_of_interest', 'establishment']",4.1,79.0,+39 02 647 2092,,,45.5157469,9.195017600000002,,
155,ChIJ-QGdVAfEhkcR5PXbaEr1tk4,Basilica di Sant'Eustorgio,"Piazza Sant'Eustorgio, 1, 20122 Milano MI, Italy","['tourist_attraction', 'church', 'place_of_worship', 'point_of_interest', 'establishment']",4.6,1873.0,+39 02 5810 1583,,,45.4539925,9.181069200000001,,
156,ChIJwW7Ie4vGhkcRilTVgieFzSI,Associazione Casamica Onlus,"Via Cesare Saldini, 26, 20133 Milano MI, Italy","['church', 'place_of_worship', 'point_of_interest', 'establishment']",4.2,15.0,+39 02 7109 2888,,,45.4719641,9.227631799999997,,
157,ChIJ9WdszWPGhkcRse7Jg0YkTZM,Associazione Casamica Onlus,"Via Sant'Achilleo, 4, 20133 Milano MI, Italy","['church', 'place_of_worship', 'point_of_interest', 'establishment']",4.7,35.0,+39 02 7104 0296,,,45.46795119999999,9.2345734,,
158,ChIJZ_vDij6_hkcRgr9Ns4Eso04,Regina Pacis Parish,"Via Lauro, 1, 20095 Cusano Milanino MI, Italy","['church', 'place_of_worship', 'point_of_interest', 'establishment']",4.2,62.0,+39 02 619 3094,,,45.55649369999999,9.192754700000002,,
159,ChIJL1dsvYnGhkcRvkGtBhAMcP0,Chiesa Cattolica Parrocchiale Basilica dei Santi Nereo e Achilleo,"Viale Argonne, 56, 20133 Milano MI, Italy","['church', 'place_of_worship', 'point_of_interest', 'establishment']",4.3,118.0,+39 02 743479,,"[{'name': 'Monday', 'data': [0, 0, 0, 0, 0, 0, 0, 0, 3, 7, 11, 11, 0, 0, 0, 4, 11, 16, 13, 0, 0, 0, 0, 0]}, {'name': 'Tuesday', 'data': [0, 0, 0, 0, 0, 0, 0, 0, 5, 10, 13, 13, 0, 0, 0, 9, 14, 16, 16, 0, 0, 0, 0, 0]}, {'name': 'Wednesday', 'data': [0, 0, 0, 0, 0, 0, 0, 0, 4, 9, 13, 13, 0, 0, 0, 7, 11, 13, 12, 0, 0, 0, 0, 0]}, {'name': 'Thursday', 'data': [0, 0, 0, 0, 0, 0, 0, 0, 4, 7, 9, 7, 0, 0, 0, 7, 12, 13, 9, 0, 0, 0, 0, 0]}, {'name': 'Friday', 'data': [0, 0, 0, 0, 0, 0, 0, 0, 3, 3, 4, 2, 0, 0, 0, 8, 11, 12, 10, 0, 0, 0, 0, 0]}, {'name': 'Saturday', 'data': [0, 0, 0, 0, 0, 0, 0, 0, 5, 9, 12, 11, 0, 0, 0, 2, 10, 27, 36, 0, 0, 0, 0, 0]}, {'name': 'Sunday', 'data': [0, 0, 0, 0, 0, 0, 0, 0, 18, 57, 100, 95, 0, 0, 0, 5, 19, 39, 42, 0, 0, 0, 0, 0]}]",45.468122,9.233497,,
160,ChIJzQGjAnm5hkcRYIuEx1R8bvo,Synlab MONZA CAM POLIDIAGNOSTICO,"Via Martiri della Foibe, Viale Elvezia, 1, 20900 Monza MB, Italy","['hospital', 'doctor', 'health', 'point_of_interest', 'establishment']",3.7,87.0,+39 039 23971,,,45.5950755,9.250454799999998,,
161,ChIJ9el3ikTBhkcRsnFT_Ie31Ww,Dr. Rubin Benjamin,"Via Francesco Petrarca, 3, 20123 Milano MI, Italy","['doctor', 'health', 'point_of_interest', 'establishment']",5.0,3.0,+39 02 469 4441,,,45.4713551,9.1698102,,
162,ChIJbc6tc27BhkcRMiBrakL3H1E,Speciani Dr. Attilio,"Via Flavio Vegezio, 12, 20149 Milano MI, Italy","['doctor', 'health', 'point_of_interest', 'establishment']",3.7,7.0,+39 02 4800 8454,,"[{'name': 'Monday', 'data': [0, 0, 0, 0, 0, 0, 0, 0, 17, 26, 34, 43, 47, 52, 56, 56, 56, 52, 0, 0, 0, 0, 0, 0]}, {'name': 'Tuesday', 'data': [0, 0, 0, 0, 0, 0, 0, 0, 4, 13, 34, 52, 52, 39, 34, 43, 39, 21, 0, 0, 0, 0, 0, 0]}, {'name': 'Wednesday', 'data': [0, 0, 0, 0, 0, 0, 0, 0, 26, 34, 43, 43, 52, 65, 78, 82, 69, 47, 0, 0, 0, 0, 0, 0]}, {'name': 'Thursday', 'data': [0, 0, 0, 0, 0, 0, 0, 0, 21, 21, 21, 13, 13, 26, 52, 73, 69, 43, 0, 0, 0, 0, 0, 0]}, {'name': 'Friday', 'data': [0, 0, 0, 0, 0, 0, 0, 0, 52, 86, 100, 82, 60, 52, 60, 65, 65, 52, 0, 0, 0, 0, 0, 0]}, {'name': 'Saturday', 'data': [0, 0, 0, 0, 0, 0, 0, 0, 0, 0, 0, 0, 0, 0, 0, 0, 0, 0, 0, 0, 0, 0, 0, 0]}, {'name': 'Sunday', 'data': [0, 0, 0, 0, 0, 0, 0, 0, 0, 0, 0, 0, 0, 0, 0, 0, 0, 0, 0, 0, 0, 0, 0, 0]}]",45.47462559999999,9.1539261,"[90, 150]",
163,ChIJI_FG2gPEhkcR-mvtE-czK0A,Centro Medico Galeno,"Via Cosimo del Fante, 3, 20122 Milano MI, Italy","['doctor', 'health', 'point_of_interest', 'establishment']",5.0,7.0,+39 02 5830 9924,,,45.4551136,9.186677099999999,,
164,ChIJqXqaBpi5hkcR1QjhZvW6iJU,Centro Medieste Srl,"Via Monsignor Luigi Talamoni, 4, 20900 Monza MB, Italy","['doctor', 'health', 'point_of_interest', 'establishment']",,,+39 039 328988,,,45.584114,9.280476999999998,,
165,ChIJ4wK71t3AhkcREwbcxgeKU7I,Dott.ssa Bianchi Alessandra,"Via Livigno, 2, 20158 Milano MI, Italy","['doctor', 'health', 'point_of_interest', 'establishment']",3.7,3.0,+39 328 499 0339,,,45.49757510000001,9.178794300000002,,
166,ChIJ857dB3PEhkcRNXMCtMxwgjQ,Molteni D.ssa Francesca,"Viale Giovanni da Cermenate, 64, 20141 Milano MI, Italy","['doctor', 'health', 'point_of_interest', 'establishment']",3.1,16.0,+39 02 8950 0650,,,45.4372352,9.183018599999999,,
167,ChIJVaxb3izEhkcRxz-A8iU44Z8,IDE | Istituto Dermatologico Europeo,"Viale Puglie, 15, 20137 Milano MI, Italy","['doctor', 'health', 'point_of_interest', 'establishment']",4.2,58.0,+39 02 549 2511,,"[{'name': 'Monday', 'data': [0, 0, 0, 0, 0, 0, 0, 0, 7, 14, 25, 37, 48, 57, 64, 74, 81, 77, 57, 33, 0, 0, 0, 0]}, {'name': 'Tuesday', 'data': [0, 0, 0, 0, 0, 0, 0, 0, 22, 70, 88, 53, 50, 83, 100, 90, 72, 44, 18, 3, 0, 0, 0, 0]}, {'name': 'Wednesday', 'data': [0, 0, 0, 0, 0, 0, 0, 0, 29, 70, 74, 50, 46, 51, 55, 53, 48, 38, 27, 18, 0, 0, 0, 0]}, {'name': 'Thursday', 'data': [0, 0, 0, 0, 0, 0, 0, 0, 7, 29, 40, 42, 61, 38, 50, 79, 88, 70, 38, 14, 0, 0, 0, 0]}, {'name': 'Friday', 'data': [0, 0, 0, 0, 0, 0, 0, 0, 33, 53, 72, 81, 87, 92, 94, 87, 70, 50, 29, 16, 0, 0, 0, 0]}, {'name': 'Saturday', 'data': [0, 0, 0, 0, 0, 0, 0, 0, 20, 66, 83, 72, 90, 94, 77, 59, 37, 16, 0, 0, 0, 0, 0, 0]}, {'name': 'Sunday', 'data': [0, 0, 0, 0, 0, 0, 0, 0, 0, 0, 0, 0, 0, 0, 0, 0, 0, 0, 0, 0, 0, 0, 0, 0]}]",45.44826399999999,9.2236528,"[25, 90]",
168,ChIJqx0UtdHahkcRf7jgsl2pRog,Studio Radiologico Belfiore 5,"Via Martiri di Belfiore, 5, 20090 Opera MI, Italy","['doctor', 'health', 'point_of_interest', 'establishment']",3.7,87.0,+39 02 5760 1832,,,45.37341579999999,9.210948499999997,,
169,ChIJ9yEB-MHGhkcRhR7ADhZr0-g,Metis - Studio Medico e Psicologico,"Via Plinio, 1, 20129 Milano MI, Italy","['doctor', 'health', 'point_of_interest', 'establishment']",5.0,1.0,+39 02 2951 5510,,"[{'name': 'Monday', 'data': [0, 0, 0, 0, 0, 0, 0, 0, 0, 28, 50, 67, 75, 71, 67, 60, 46, 35, 32, 0, 0, 0, 0, 0]}, {'name': 'Tuesday', 'data': [0, 0, 0, 0, 0, 0, 0, 0, 0, 21, 35, 28, 28, 35, 42, 42, 42, 35, 25, 0, 0, 0, 0, 0]}, {'name': 'Wednesday', 'data': [0, 0, 0, 0, 0, 0, 0, 0, 0, 14, 28, 35, 39, 46, 57, 57, 39, 25, 25, 0, 0, 0, 0, 0]}, {'name': 'Thursday', 'data': [0, 0, 0, 0, 0, 0, 0, 0, 0, 53, 78, 78, 60, 50, 46, 46, 46, 39, 32, 0, 0, 0, 0, 0]}, {'name': 'Friday', 'data': [0, 0, 0, 0, 0, 0, 0, 0, 0, 32, 28, 17, 28, 71, 100, 85, 53, 46, 46, 0, 0, 0, 0, 0]}, {'name': 'Saturday', 'data': [0, 0, 0, 0, 0, 0, 0, 0, 0, 0, 0, 0, 0, 0, 0, 0, 0, 0, 0, 0, 0, 0, 0, 0]}, {'name': 'Sunday', 'data': [0, 0, 0, 0, 0, 0, 0, 0, 0, 0, 0, 0, 0, 0, 0, 0, 0, 0, 0, 0, 0, 0, 0, 0]}]",45.4801011,9.2112623,,
170,ChIJw5SCtXjBhkcRGxKpPxYhTcQ,Osteopata Carrubba DO,"Via Pisanello, 4, 20146 Milano MI, Italy","['physiotherapist', 'doctor', 'health', 'point_of_interest', 'establishment']",4.9,60.0,+39 347 247 1855,,,45.466992,9.139431999999998,,
171,ChIJWVg3RRm5hkcRKrUUXkHDqyM,Gi.Vi.Dental Ambulatorio dentistico,"Via Meda, 63, 20900 Monza MB, Italy","['dentist', 'doctor', 'health', 'point_of_interest', 'establishment']",4.7,41.0,+39 039 748434,,"[{'name': 'Monday', 'data': [0, 0, 0, 0, 0, 0, 0, 0, 0, 39, 35, 14, 10, 28, 57, 75, 64, 35, 10, 0, 0, 0, 0, 0]}, {'name': 'Tuesday', 'data': [0, 0, 0, 0, 0, 0, 0, 0, 0, 21, 53, 60, 35, 21, 53, 78, 42, 60, 92, 0, 0, 0, 0, 0]}, {'name': 'Wednesday', 'data': [0, 0, 0, 0, 0, 0, 0, 0, 32, 75, 100, 75, 39, 32, 50, 57, 71, 92, 60, 0, 0, 0, 0, 0]}, {'name': 'Thursday', 'data': [0, 0, 0, 0, 0, 0, 0, 0, 0, 0, 0, 0, 0, 0, 0, 0, 0, 0, 0, 0, 0, 0, 0, 0]}, {'name': 'Friday', 'data': [0, 0, 0, 0, 0, 0, 0, 0, 0, 25, 42, 42, 32, 42, 64, 64, 57, 64, 53, 0, 0, 0, 0, 0]}, {'name': 'Saturday', 'data': [0, 0, 0, 0, 0, 0, 0, 0, 0, 0, 0, 0, 0, 0, 0, 0, 0, 0, 0, 0, 0, 0, 0, 0]}, {'name': 'Sunday', 'data': [0, 0, 0, 0, 0, 0, 0, 0, 0, 0, 0, 0, 0, 0, 0, 0, 0, 0, 0, 0, 0, 0, 0, 0]}]",45.573066,9.2484384,"[30, 60]",
172,ChIJ27v2lHzBhkcR-ebCUY4oTLg,Centro Medico Fisioterapico Ambrosiana Medical Center,"Via Giuseppe Frua, 22, 20146 Milano MI, Italy","['physiotherapist', 'hospital', 'doctor', 'health', 'point_of_interest', 'establishment']",5.0,4.0,+39 02 4800 1713,,,45.4651053,9.1472942,,
173,ChIJI7XHu2TIhkcRicDkqB7uUMo,Dental Practice Sidoti & Tartaglia Srl,"Via Martiri della Libertà, 58, 20090 Segrate MI, Italy","['dentist', 'doctor', 'health', 'point_of_interest', 'establishment']",4.9,46.0,+39 02 2692 1196,,"[{'name': 'Monday', 'data': [0, 0, 0, 0, 0, 0, 0, 0, 0, 48, 65, 71, 68, 65, 67, 74, 78, 69, 51, 30, 13, 0, 0, 0]}, {'name': 'Tuesday', 'data': [0, 0, 0, 0, 0, 0, 0, 0, 0, 33, 43, 42, 38, 44, 59, 74, 80, 74, 59, 38, 20, 0, 0, 0]}, {'name': 'Wednesday', 'data': [0, 0, 0, 0, 0, 0, 0, 0, 0, 36, 50, 55, 55, 60, 75, 93, 100, 84, 55, 26, 8, 0, 0, 0]}, {'name': 'Thursday', 'data': [0, 0, 0, 0, 0, 0, 0, 0, 0, 48, 65, 69, 61, 49, 44, 46, 48, 42, 28, 14, 3, 0, 0, 0]}, {'name': 'Friday', 'data': [0, 0, 0, 0, 0, 0, 0, 0, 0, 44, 62, 66, 63, 68, 81, 91, 87, 73, 56, 39, 25, 0, 0, 0]}, {'name': 'Saturday', 'data': [0, 0, 0, 0, 0, 0, 0, 0, 0, 38, 84, 96, 63, 32, 25, 26, 24, 15, 0, 0, 0, 0, 0, 0]}, {'name': 'Sunday', 'data': [0, 0, 0, 0, 0, 0, 0, 0, 0, 0, 0, 0, 0, 0, 0, 0, 0, 0, 0, 0, 0, 0, 0, 0]}]",45.4925407,9.2988924,"[30, 90]",
174,ChIJa3jTIiHEhkcROmikgj1bvp8,Auxologico Pier Lombardo,"Via Pier Lombardo, 22, 20135 Milano MI, Italy","['hospital', 'doctor', 'dentist', 'health', 'point_of_interest', 'establishment']",3.2,65.0,+39 02 6191 12501,,,45.453494,9.207806000000001,,
175,ChIJvTiJXJXGhkcRtsb6sThBLEM,Vitaldent,"Piazza Otto Novembre, 6, 20129 Milano MI, Italy","['dentist', 'doctor', 'health', 'point_of_interest', 'establishment']",4.5,38.0,+39 02 8905 7082,,"[{'name': 'Monday', 'data': [0, 0, 0, 0, 0, 0, 0, 0, 0, 14, 19, 23, 28, 28, 28, 33, 47, 61, 57, 38, 0, 0, 0, 0]}, {'name': 'Tuesday', 'data': [0, 0, 0, 0, 0, 0, 0, 0, 0, 38, 85, 100, 76, 71, 80, 85, 76, 61, 42, 23, 0, 0, 0, 0]}, {'name': 'Wednesday', 'data': [0, 0, 0, 0, 0, 0, 0, 0, 0, 19, 42, 52, 42, 38, 52, 57, 57, 42, 28, 14, 0, 0, 0, 0]}, {'name': 'Thursday', 'data': [0, 0, 0, 0, 0, 0, 0, 0, 0, 42, 57, 28, 23, 38, 52, 57, 52, 38, 23, 14, 0, 0, 0, 0]}, {'name': 'Friday', 'data': [0, 0, 0, 0, 0, 0, 0, 0, 0, 14, 23, 28, 33, 42, 47, 38, 23, 14, 19, 14, 0, 0, 0, 0]}, {'name': 'Saturday', 'data': [0, 0, 0, 0, 0, 0, 0, 0, 0, 0, 0, 0, 0, 0, 0, 0, 0, 0, 0, 0, 0, 0, 0, 0]}, {'name': 'Sunday', 'data': [0, 0, 0, 0, 0, 0, 0, 0, 0, 0, 0, 0, 0, 0, 0, 0, 0, 0, 0, 0, 0, 0, 0, 0]}]",45.4743559,9.2108063,,
176,ChIJdWrO0gLEhkcRhBAjBn6wBVY,Studio San Calimero,"Via S. Calimero, 17, 20122 Milano MI, Italy","['hospital', 'doctor', 'health', 'point_of_interest', 'establishment']",4.7,3.0,+39 02 4549 1484,,,45.4560548,9.1926869,,
177,ChIJKX1bTLzGhkcRzs22chdVG_g,Studio Medico Bassani Dr. Luciano Cesare,"Viale Luigi Majno, 15, 20122 Milano MI, Italy","['hospital', 'doctor', 'health', 'point_of_interest', 'establishment']",4.0,14.0,+39 02 7602 1267,,,45.4694116,9.2053994,,
178,ChIJRzE9jALEhkcRm2q5kgovkw4,Marchi Dr. Riccardo Somed,"Via Santa Sofia, 18, 20122 Milano MI, Italy","['doctor', 'health', 'point_of_interest', 'establishment']",,,+39 02 5831 1603,,,45.45735639999999,9.1906951,,
179,ChIJ_7DxWDXBhkcRIbPW3dpzAF0,ICLID Studio Medico Associato,"Via della Moscova, 42, 20121 Milano MI, Italy","['doctor', 'health', 'point_of_interest', 'establishment']",4.4,12.0,+39 02 7602 0308,,"[{'name': 'Monday', 'data': [0, 0, 0, 0, 0, 0, 0, 0, 0, 22, 38, 55, 55, 44, 33, 33, 44, 50, 44, 0, 0, 0, 0, 0]}, {'name': 'Tuesday', 'data': [0, 0, 0, 0, 0, 0, 0, 0, 0, 33, 50, 27, 5, 11, 66, 83, 61, 61, 33, 0, 0, 0, 0, 0]}, {'name': 'Wednesday', 'data': [0, 0, 0, 0, 0, 0, 0, 0, 0, 0, 0, 0, 0, 0, 0, 0, 0, 0, 0, 0, 0, 0, 0, 0]}, {'name': 'Thursday', 'data': [0, 0, 0, 0, 0, 0, 0, 0, 0, 5, 11, 16, 27, 27, 27, 27, 50, 88, 44, 0, 0, 0, 0, 0]}, {'name': 'Friday', 'data': [0, 0, 0, 0, 0, 0, 0, 0, 0, 100, 61, 55, 66, 44, 27, 22, 11, 0, 0, 0, 0, 0, 0, 0]}, {'name': 'Saturday', 'data': [0, 0, 0, 0, 0, 0, 0, 0, 0, 0, 0, 0, 0, 0, 0, 0, 0, 0, 0, 0, 0, 0, 0, 0]}, {'name': 'Sunday', 'data': [0, 0, 0, 0, 0, 0, 0, 0, 0, 0, 0, 0, 0, 0, 0, 0, 0, 0, 0, 0, 0, 0, 0, 0]}]",45.4773076,9.1869673,,
180,ChIJYcpAaLm5hkcRyaSlpUOsRag,Studio Dentistico Dott. Fabio Terzi,"Viale Ugo Foscolo, 21, 20900 Monza MB, Italy","['dentist', 'health', 'point_of_interest', 'establishment']",4.5,2.0,+39 039 202 2811,,,45.5773662,9.2854122,,
181,ChIJYf7YeAfEhkcRuPp6edLIvxk,Bolzoni Luca,"Piazza Francesco Carrara, 17, 20141 Milano MI, Italy","['dentist', 'health', 'point_of_interest', 'establishment']",,,+39 02 5810 3923,,,45.451944,9.1805767,,
182,ChIJ4-AqjRjEhkcRvAnKU2ekbvQ,Polito Mario,"Via Gaetana Agnesi, 10, 20135 Milano MI, Italy","['dentist', 'health', 'point_of_interest', 'establishment']",,,+39 02 5831 7705,,,45.44950619999999,9.201614800000002,,
183,ChIJgTUdYhbBhkcRml22-Ct6SwQ,Studio Dentistico Associato Stomatologico Castelvetro,"Via Lodovico Castelvetro, 9, 20154 Milano MI, Italy","['dentist', 'health', 'point_of_interest', 'establishment']",,,+39 02 331 3397,,,45.48468769999999,9.164133999999997,,
184,ChIJ_ZRHRyK8hkcRqPZaM3Kgc9M,Ambulatorio Odontoiatrico Ass. Grimaldi E Zorloni,"Via Achille Grandi, 8, 20832 Desio MB, Italy","['dentist', 'health', 'point_of_interest', 'establishment']",,,+39 0362 305215,,,45.6146116,9.207056299999998,,
185,ChIJeQqz6226hkcRRzwMrujY5Qc,Studio Dentistico Dott.ssa Isabella Santo,"Via Natale Beretta, 67, 20862 Arcore MB, Italy","['dentist', 'health', 'point_of_interest', 'establishment']",5.0,2.0,+39 039 601 2241,,,45.6225473,9.3158387,,
186,ChIJ-8ofsHrlhkcRWjmCEw3KHbM,Studio Dentistico Solari Dott. Davide,"Via Fratelli Cairoli, 14, 20081 Abbiategrasso MI, Italy","['dentist', 'health', 'point_of_interest', 'establishment']",,,+39 02 9496 3830,,"[{'name': 'Monday', 'data': [0, 0, 0, 0, 0, 0, 0, 0, 0, 18, 22, 9, 0, 0, 13, 27, 27, 27, 86, 36, 0, 0, 0, 0]}, {'name': 'Tuesday', 'data': [0, 0, 0, 0, 0, 0, 0, 0, 0, 0, 0, 0, 0, 0, 0, 0, 0, 0, 0, 0, 0, 0, 0, 0]}, {'name': 'Wednesday', 'data': [0, 0, 0, 0, 0, 0, 0, 0, 0, 18, 22, 13, 4, 0, 18, 40, 45, 63, 59, 18, 0, 0, 0, 0]}, {'name': 'Thursday', 'data': [0, 0, 0, 0, 0, 0, 0, 0, 0, 22, 36, 31, 22, 0, 4, 4, 13, 45, 59, 31, 0, 0, 0, 0]}, {'name': 'Friday', 'data': [0, 0, 0, 0, 0, 0, 0, 0, 0, 0, 0, 0, 0, 0, 4, 27, 77, 100, 59, 13, 0, 0, 0, 0]}, {'name': 'Saturday', 'data': [0, 0, 0, 0, 0, 0, 0, 0, 0, 0, 0, 0, 0, 0, 0, 0, 0, 0, 0, 0, 0, 0, 0, 0]}, {'name': 'Sunday', 'data': [0, 0, 0, 0, 0, 0, 0, 0, 0, 0, 0, 0, 0, 0, 0, 0, 0, 0, 0, 0, 0, 0, 0, 0]}]",45.3947331,8.918874100000002,,
